stop_id,stop_code,stop_name,stop_desc,stop_lat,stop_lon,zone_id,stop_url,location_type,parent_station
1,,Stop 92 Alawoona Rd - North West side,,-34.66091, 138.70355,,,,
2,,Stop 92 Alawoona Rd - South East side,,-34.66114, 138.70346,,,,
3,,Stop 93 Alawoona Rd - North West side,,-34.66324, 138.70171,,,,
4,,Stop 93 Alawoona Rd - South East side,,-34.66366, 138.70166,,,,
5,,Stop 91 Carcoola Rd - North West side,,-34.6614370056008, 138.705493365841,,,,
6,,Stop 91 Carcoola Rd - South East side,,-34.66151, 138.70559,,,,
7,,Stop 90 Carcoola Rd - South East side,,-34.6641360554388, 138.704101967217,,,,
8,,Stop 90 Carcoola Rd - North West side,,-34.6642793681353, 138.703834169303,,,,
9,,Stop 94 Alawoona Rd - North Western side,,-34.66635, 138.69789,,,,
10,,Stop 89 Carcoola Rd - North West side,,-34.6663451456967, 138.70281418814,,,,
11,,Stop 89 Carcoola Rd - South East side,,-34.6663, 138.70307,,,,
12,,Stop 88 Noora Cr - South East side,,-34.66734, 138.70077,,,,
13,,Stop 88 Noora Cr - North West side,,-34.6669868347755, 138.700790419366,,,,
14,,Stop 76 President Av - Western side,,-34.6676153584776, 138.667939203326,,,,
15,,Stop 73 Old Port Wakefield Rd - Eastern side,,-34.66772, 138.56094,,,,
16,,Stop 76 President Av - Eastern side,,-34.66773, 138.668,,,,
17,,Stop 75 President Av - Eastern side,,-34.669431590146, 138.666946476489,,,,
19,,Stop 87 Maltarra Rd - South East side,,-34.6684659296038, 138.701314331209,,,,
20,,Stop 75 President Av - Western side,,-34.6701350810759, 138.666368794238,,,,
21,,Stop 72 Old Port Wakefield Rd - South West side,,-34.6706, 138.5617,,,,
22,,Stop 77 Curtis Rd - North East side,,-34.6691872101082, 138.673079620199,,,,
23,,Stop 77 Curtis Rd - South West side,,-34.66923, 138.67267,,,,
24,,Stop 87 Maltarra Rd - North West side,,-34.6686865135038, 138.701007990289,,,,
25,,Stop 78 Curtis Rd - Northern side,,-34.6702696402757, 138.675472228587,,,,
26,,Stop 78 Curtis Rd - Southern side,,-34.67019, 138.675,,,,
27,,Stop 74H President Av - Eastern side,,-34.671818, 138.66693,,,,
28,,Stop 96 Alawoona Rd - South East side,,-34.672480192878, 138.695200968361,,,,
29,,Stop 78A Curtis Rd - Northern side,,-34.6710517209751, 138.677303747585,,,,
30,,Stop 78A Curtis Rd - Southern side,,-34.67108, 138.67706,,,,
31,,Stop 71 Old Port Wakefield Rd - Eastern side,,-34.675248639843, 138.563327338503,,,,
32,,Stop 86 Maltarra Rd - South East side,,-34.6708523725428, 138.700267018916,,,,
33,,Stop 86 Maltarra Rd - North West side,,-34.6709095150467, 138.700077381251,,,,
34,,Stop 71 Old Port Wakefield Rd - South West side,,-34.6748280746903, 138.563009389142,,,,
35,,Stop 97 Myall Av - North East side,,-34.6750964503942, 138.694059063348,,,,
36,,Stop 85 Maltarra Rd - South East side,,-34.67307, 138.6989,,,,
37,,Stop 85 Maltarra Rd - North West side,,-34.67343, 138.6983,,,,
38,,Stop 78B Peachey Rd - Western side,,-34.67375, 138.6779,,,,
39,,Stop 78B Peachey Rd - Eastern side,,-34.6740248317118, 138.678112737422,,,,
40,,Stop 84 Maltarra Rd - South East side,,-34.6753047071171, 138.697408829863,,,,
41,,Stop 84 Maltarra Rd - North West side,,-34.6754314479618, 138.697176023295,,,,
42,,Stop 83 Maltarra Rd - South East side,,-34.6755889438042, 138.694947130554,,,,
43,,Stop 83 Maltarra Rd - North West side,,-34.6754163399317, 138.694987503501,,,,
47,,Stop 70 Old Port Wakefield Rd - North East side,,-34.6811640623665, 138.565240291879,,,,
49,,Stop 82 Mingari St - South East side,,-34.6772, 138.69504,,,,
50,,Stop 82 Mingari St - North West side,,-34.6768937003031, 138.694995693258,,,,
51,,Stop 70 Old Port Wakefield Rd - South West side,,-34.68145, 138.56511,,,,
52,,Stop 89 Craigmore Rd - Northern side,,-34.6808431537633, 138.700054503668,,,,
53,,Stop 79H Coventry Rd - South East side,,-34.6800051487318, 138.681300026312,,,,
55,,Stop 79H Coventry Rd - North West side,,-34.6800315694616, 138.681105568429,,,,
59,,Stop 80 Anderson Wk - Northern side,,-34.6796781452012, 138.683676405969,,,,
60,,Stop 81C Main North Rd - Eastern side,,-34.6802945164008, 138.695675945018,,,,
61,,Zone B Smithfield Int ,,-34.6817215302139, 138.687338249642,,,,
63,,Stop 81C Main North Rd - Western side,,-34.68073, 138.69494,,,,
64,,Zone A Smithfield Int,,-34.68236581066, 138.687186748733,,,,
65,,Stop 88 Craigmore Rd - Northern side,,-34.6821256625326, 138.703076221273,,,,
66,,Zone C Smithfield Int,,-34.682129415849, 138.68727041059,,,,
70,,Stop 81A Anderson Wk - Northern side,,-34.6833769106336, 138.692214874369,,,,
71,,Stop 88 Craigmore Rd - Southern side,,-34.6825121861159, 138.70355664639,,,,
72,,Stop 79J Coventry Rd - South East side,,-34.6829030286883, 138.67945638079,,,,
74,,Stop 81B Main North Rd - Eastern side,,-34.6828213023123, 138.694096565891,,,,
75,,Stop 69 Old Port Wakefield Rd - Eastern side,,-34.686189708295, 138.56700144436,,,,
76,,Stop 79J Coventry Rd - North West side,,-34.6830780297123, 138.679170387892,,,,
77,,Stop 69 Old Port Wakefield Rd - Western side,,-34.6860981853233, 138.566874067988,,,,
78,,Stop 87 Craigmore Rd - Southern side,,-34.6838405657568, 138.706681473061,,,,
79,,Stop 87 Craigmore Rd - Northern side,,-34.6838065903967, 138.706944714789,,,,
80,,Stop 80M Warooka Cr - South West side,,-34.6842691590774, 138.688502717564,,,,
81,,Stop 80M Warooka Cr - North East side,,-34.6843219980044, 138.688830641009,,,,
82,,Stop 89 Park Lake Bvd - North West side,,-34.68423, 138.70041,,,,
83,,Stop 76 Whitington Rd - Northern side,,-34.6855148015043, 138.675551304497,,,,
84,,Stop 86 Craigmore Rd - Southern side,,-34.6845623441357, 138.708379053631,,,,
85,,Stop 76 Whitington Rd - Southern side,,-34.6856175686502, 138.675452984669,,,,
86,,Stop 86 Craigmore Rd - Northern side,,-34.6846601389113, 138.708895725381,,,,
87,,Stop 92 Park Lake Bvd - Eastern side,,-34.69055, 138.69917,,,,
93,,Stop 85 Craigmore Rd - Southern side,,-34.6859723873499, 138.71167193726,,,,
95,,Stop 85 Craigmore Rd - Northern side,,-34.6859606674409, 138.711978967227,,,,
97,,Stop 74 Peachey Rd - Eastern side,,-34.6872956395189, 138.670305551167,,,,
98,,Stop 74 Peachey Rd - Western side,,-34.6872773000216, 138.669983606948,,,,
100,,Stop 91 Park Lake Bvd - Eastern side,,-34.6877630320762, 138.698363696671,,,,
102,,Stop 78 Uley Rd - South West side,,-34.6897, 138.69261,,,,
104,,Stop 78 Uley Rd - North East side,,-34.6896652158516, 138.693010954385,,,,
106,,Stop 89 Park Lake Bvd - South East side,,-34.6837693368592, 138.701480291072,,,,
107,,Stop 84 Adams Rd - Eastern side,,-34.6880939211872, 138.712190801564,,,,
108,,Stop 91 Park Lake Bvd - Western side,,-34.68794, 138.69813,,,,
109,,Stop 73 Peachey Rd - South East side,,-34.6900227432392, 138.669488255583,,,,
110,,Stop 77 Hamblynn Rd - North West side,,-34.6913580552173, 138.693754131654,,,,
111,,Stop 77 Hamblynn Rd - South East side,,-34.6913627528871, 138.693925506724,,,,
112,,Stop 73 Peachey Rd - North West side,,-34.6898184263157, 138.669282662674,,,,
113,,Stop 68 Port Wakefield Rd - South West side,,-34.696397175505, 138.569929165493,,,,
114,,Stop 77 Adams Rd - Eastern side,,-34.6914984097203, 138.710035758427,,,,
115,,Stop 76 Hamblynn Rd - North West side,,-34.6927035399476, 138.692911562512,,,,
116,,Stop 77 Adams Rd - Western side,,-34.6913407695169, 138.709928910889,,,,
117,,Stop 77D Uley Rd - North East side,,-34.6926591531575, 138.699919447866,,,,
118,,Stop 76 Hamblynn Rd - South East side,,-34.6932630379495, 138.692743773628,,,,
119,,Stop 72 Peachey Rd - Eastern side,,-34.6925382141167, 138.667888459978,,,,
120,,Stop 76F Adams Rd - Eastern side,,-34.6938697853478, 138.708490069337,,,,
121,,Stop 72 Peachey Rd - Western side,,-34.6923449639854, 138.667681393794,,,,
122,,Stop 68 Port Wakefield Rd - North East side,,-34.6950757112301, 138.569654843048,,,,
123,,Stop 76C Hanson Rd - South East side,,-34.695161, 138.700356,,,,
124,,Stop 75 Hamblynn Rd - North West side,,-34.6952425019774, 138.692041265886,,,,
125,,Stop 76F Adams Rd - Western side,,-34.6938588087258, 138.708308465897,,,,
126,,Stop 75 Hamblynn Rd - North East side,,-34.6953758877381, 138.692257279893,,,,
127,,Stop 76C Hanson Rd - South West side,,-34.6954002455855, 138.700034230637,,,,
128,,Stop 71 Fordingbridge Rd - Northern side,,-34.6959327140968, 138.666065567206,,,,
129,,Stop 71 Fordingbridge Rd - Southern side,,-34.696, 138.66555,,,,
130,,Stop 79B Uley Rd - Northern side,,-34.69603, 138.70779,,,,
132,,Stop 74A Hamblynn Rd - South West side,,-34.6971493406141, 138.691964753118,,,,
133,,Stop 74A Hamblynn Rd - South East side,,-34.6971782856385, 138.692142113234,,,,
134,,Stop 70A Easton Av - Western side,,-34.6957190261284, 138.662341716299,,,,
135,,Stop 76B Hanson Rd - South East side,,-34.696002532521, 138.699802036735,,,,
136,,Stop 70A Easton Av - Eastern side,,-34.695961944923, 138.662345596287,,,,
137,,Stop 76B Hanson Rd - North West side,,-34.6961111890222, 138.699584018611,,,,
140,,Stop 72 Woodford Rd - Northern side,,-34.6989828584396, 138.682209055148,,,,
141,,Stop 79A Uley Rd - Northern side,,-34.69725, 138.7107,,,,
142,,Stop 72 Woodford Rd - Southern side,,-34.699041876851, 138.681986047166,,,,
143,,Stop 74 Hamblynn Rd - South East side,,-34.6990313157624, 138.691366468273,,,,
144,,Stop 74 Hamblynn Rd - North West side,,-34.69933, 138.69098,,,,
145,,Stop 73 Midway Rd - Northern side,,-34.7002081942627, 138.685019996653,,,,
146,,Stop 71 Woodford Rd - South East side,,-34.698532430676, 138.67904776014,,,,
147,,Stop 76A Hanson Rd - South West side,,-34.69865, 138.69801,,,,
148,,Stop 73 Midway Rd - Southern side,,-34.7002144496906, 138.68469114741,,,,
149,,Stop 76A Hanson Rd - South East side,,-34.6986444186079, 138.698154929371,,,,
150,,Stop 70 Easton Av - Eastern side,,-34.6990834476192, 138.661201529543,,,,
151,,Stop 70 Easton Av - Western side,,-34.69877, 138.66119,,,,
152,,Stop 71 Woodford Rd - North West side,,-34.6983910425496, 138.678984587557,,,,
153,,Stop 79 Blair Park Dr - Eastern side,,-34.6995364731885, 138.710956336426,,,,
154,,Stop 79 Blair Park Dr - Western side,,-34.69901, 138.71109,,,,
156,,Stop 73A Midway Rd - Northern side,,-34.7016001193669, 138.688278325408,,,,
157,,Stop 73A Midway Rd - Southern side,,-34.7016908668602, 138.688083606285,,,,
158,,Stop 76 Hanson Rd - North West side,,-34.7005748839357, 138.696464952953,,,,
159,,Stop 76 Hanson Rd - South East side,,-34.70083, 138.69633,,,,
160,,Stop 68 Peachey Rd - Western side,,-34.7036290347398, 138.663550824573,,,,
161,,Stop 69  Womma Rd - Northern side,,-34.7005182729861, 138.663470269018,,,,
162,,Stop 70 Woodford Rd - South East side,,-34.7011021597347, 138.676967445545,,,,
163,,Stop 73 Midway Rd - South Western side,,-34.7025664298546, 138.690026637119,,,,
164,,Stop 73 Midway Rd - North Eastern side,,-34.7025205050494, 138.690226852374,,,,
165,,Stop 70 Woodford Rd - North West side,,-34.7016386641485, 138.67638604453,,,,
166,,Stop 78 Blair Park Dr - Eastern side,,-34.7016426462459, 138.710007001775,,,,
167,,Stop 75 Campbell Rd - North East side,,-34.7025670988431, 138.695651955497,,,,
168,,Stop 75 Campbell Rd - South West side,,-34.702431538947, 138.695268802095,,,,
169,,Stop 78 Blair Park Dr - Western side,,-34.7020968726788, 138.709787170679,,,,
170,,Stop 74 Campbell Rd - North East side,,-34.70385, 138.69701,,,,
171,,Stop 72 Midway Rd - Eastern side,,-34.7050026504112, 138.691512236197,,,,
172,,Stop 72 Midway Rd - Western side,,-34.705001315956, 138.6913294235,,,,
173,,Stop 69 Woodford Rd - Western side,,-34.7034900453873, 138.675229350945,,,,
174,,Stop 74 Campbell Rd - South West side,,-34.7042562762704, 138.697189076254,,,,
175,,Stop 69 Woodford Rd - Eastern side,,-34.7043765996229, 138.674876848188,,,,
176,,Stop 77 Blair Park Dr - South East side,,-34.70394, 138.70911,,,,
177,,Stop 69 Womma Rd - South West side,,-34.7007469212825, 138.663346934559,,,,
178,,Stop 68 Peachey Rd - North East side,,-34.7045, 138.66371,,,,
179,,Stop 66 Port Wakefield Rd - South West side,,-34.7122397296741, 138.575455163314,,,,
180,,Stop 77 Blair Park Dr - Western side,,-34.7045483461099, 138.708315536137,,,,
181,,Stop 73A Campbell Rd - South West side,,-34.7060990755081, 138.697725602219,,,,
182,,Stop 72 Yorktown Rd - North West side,,-34.7071858988508, 138.69411429129,,,,
183,,Stop 71 Yorktown Rd - Northern side,,-34.70706095254, 138.689991235894,,,,
184,,Stop 70 Yorktown Rd - Northern side,,-34.7070560560357, 138.687196678365,,,,
185,,Stop 73A Campbell Rd - North East side,,-34.7060381178877, 138.697866067618,,,,
186,,Stop 71 Yorktown Rd - Southern side,,-34.7073367550304, 138.690295705006,,,,
187,,Stop 72 Yorktown Rd - South East side,,-34.7073884151041, 138.693697251285,,,,
188,,Stop 70 Yorktown Rd - Southern side,,-34.7073477689825, 138.687226223183,,,,
189,,Stop 66 Port Wakefield Rd - North East side,,-34.7113308367794, 138.575534443969,,,,
190,,Stop 73 Yorktown Rd - North West side,,-34.70748, 138.69698,,,,
191,,Stop 73 Yorktown Rd - South East side,,-34.7076383682418, 138.696828195965,,,,
192,,Stop 68 Woodford Rd - Eastern side,,-34.70642, 138.67397,,,,
193,,Stop 69 Yorktown Rd - North West side,,-34.70782, 138.68529,,,,
194,,Stop 76 Blair Park Dr - Western side,,-34.7072295464986, 138.707327971307,,,,
195,,Stop 69 Yorktown Rd - South East side,,-34.7080173505181, 138.685514031837,,,,
196,,Stop 76 Blair Park Dr - Eastern side,,-34.7071065241402, 138.707465836262,,,,
197,,Stop 68 Woodford Rd - Western side,,-34.70628, 138.67371,,,,
198,,Stop 75 Turner Dr - Eastern side,,-34.70866, 138.70482,,,,
199,,Stop 68 Yorktown Rd - Eastern side,,-34.7100755982673, 138.684091011714,,,,
200,,Stop 75 Turner Dr - Western side,,-34.70873, 138.7047,,,,
201,,Stop 68 Yorktown Rd - Western side,,-34.71028, 138.68358,,,,
202,,Stop 67 Peachey Rd - North East side,,-34.7073, 138.66305,,,,
203,,Stop 67 Peachey Rd - South West side,,-34.70723, 138.66273,,,,
204,,Stop 67 Woodford Rd - South East side,,-34.70892, 138.6733,,,,
205,,Stop 67 Woodford Rd - North West side,,-34.709892587695, 138.672486942172,,,,
206,,Stop 67 Yorktown Rd - Western side,,-34.7119219999854, 138.682565167113,,,,
207,,Stop 70 Seaborough Rd - Northern side,,-34.71299, 138.69289,,,,
208,,Stop 74 Turner Dr - South East side,,-34.71163, 138.70331,,,,
209,,Stop 73 Turner Dr - Northern side,,-34.71238, 138.69954,,,,
210,,Stop 74 Turner Dr - North West side,,-34.71146, 138.70312,,,,
211,,Stop 73 Turner Dr - Southern side,,-34.71247, 138.70006,,,,
212,,Stop 70 Seaborough Rd - Southern side,,-34.71306, 138.69245,,,,
213,,Stop 67 Yorktown Rd - Eastern side,,-34.71267, 138.68258,,,,
214,,Stop 69 Midway Rd - Western side,,-34.71281, 138.689,,,,
215,,Stop 69 Midway Rd - Eastern side,,-34.71291, 138.68918,,,,
216,,Stop 72 Turner Dr - Southern side,,-34.71233, 138.69746,,,,
217,,Stop 71 Seaborough Rd - Northern side,,-34.7137, 138.69488,,,,
218,,Stop 71 Seaborough Rd - Southern side,,-34.71366, 138.69457,,,,
219,,Stop 72 Turner Dr - North West side,,-34.71265, 138.69644,,,,
220,,Stop 66 Woodford Rd - North West side,,-34.7120714087874, 138.671103880772,,,,
221,,Stop 66 Yorktown Rd - Western side,,-34.71471, 138.68128,,,,
222,,Stop 66 Yorktown Rd - Eastern side,,-34.7148013717875, 138.681586537033,,,,
223,,Stop 67 Shillabeer Rd - Northern side,,-34.71554, 138.6841,,,,
224,,Stop 67 Shillabeer Rd - Southern side,,-34.71562, 138.68396,,,,
225,,Stop 65C Ifould Rd - Southern side,,-34.71541, 138.67945,,,,
226,,Stop 65 Port Wakefield Rd - South West side,,-34.72031, 138.57817,,,,
227,,Stop 65C Ifould Rd - Northern side,,-34.71529, 138.67916,,,,
228,,Stop 68 Midway Rd - Western side,,-34.71632, 138.68682,,,,
229,,Stop 68 Midway Rd - Eastern side,,-34.71652, 138.68679,,,,
230,,Zone D Elizabeth City Centre - North West side,,-34.716794, 138.667855,,,,
231,,Zone A Elizabeth City Centre - North West side,,-34.71669, 138.66935,,,,
232,,Zone B Elizabeth City Centre - North West side,,-34.716741533, 138.66906747,,,,
233,,Zone C Elizabeth City Centre - North West side,,-34.71682, 138.66838,,,,
234,,Stop 65 Port Wakefield Rd - North East side,,-34.72045, 138.57865,,,,
235,,Zone E Elizabeth City Centre - Southern side,,-34.71692, 138.66894,,,,
236,,Zone A Elizabeth Int ,,-34.717058, 138.66515,,,,
237,,Zone F Elizabeth Int ,,-34.717184, 138.665201,,,,
238,,Zone E Elizabeth Int,,-34.717492, 138.66504,,,,
239,,Zone B Elizabeth Int ,,-34.71744, 138.66487,,,,
240,,Zone C Elizabeth Int ,,-34.71764, 138.66495,,,,
241,,Stop 65 Yorktown Rd - North West side,,-34.718, 138.67861,,,,
242,,Zone D Elizabeth Int ,,-34.7179585275, 138.6650320887,,,,
243,,Stop 65 Yorktown Rd - South East side,,-34.7182638825597, 138.678658498331,,,,
244,,Stop 64A Yorktown Rd - Northern side,,-34.71902, 138.67533,,,,
245,,Stop 64B Playford Bvd - Eastern side,,-34.718559, 138.671167,,,,
246,,Stop 64B Playford Bvd - Western side,,-34.71931, 138.67114,,,,
247,,Stop 64 Kinkaid Rd - North East side,,-34.71964, 138.67942,,,,
248,,Stop 64 Kinkaid Rd - South West side,,-34.71978, 138.67942,,,,
250,,Stop 63 Kinkaid Rd - Northern side,,-34.72101, 138.68261,,,,
251,,Stop 63 Kinkaid Rd - South West side,,-34.72107, 138.6825,,,,
252,,Stop 63 Philip Hwy - Western side,,-34.721078, 138.669396,,,,
253,,Stop 63 Philip Hwy - Eastern side,,-34.7213955882407, 138.669665060659,,,,
254,,Stop 62 Midway Rd - Western side,,-34.72218, 138.68304,,,,
255,,Stop 62 Midway Rd - Eastern side,,-34.722548, 138.683027,,,,
257,,Stop 64 Port Wakefield Rd - South West side,,-34.72705, 138.58052,,,,
258,,Stop 62 Philip Hwy - South East side,,-34.72341, 138.66822,,,,
260,,Stop 62 Philip Hwy - North West side,,-34.723921678835, 138.667635369708,,,,
261,,Stop 64 Port Wakefield Rd - North East side,,-34.72654, 138.58075,,,,
262,,Stop 61 Midway Rd - North West side,,-34.72484, 138.68057,,,,
265,,Stop 61 Midway Rd - South East side,,-34.72543, 138.68031,,,,
266,,Stop 60 Midway Rd - Western side,,-34.72623, 138.67904,,,,
267,,Stop 60 Midway Rd - Eastern side,,-34.72664, 138.67929,,,,
268,,Stop 61 Philip Hwy - South East side,,-34.7267506274417, 138.666138341151,,,,
269,,Stop 61 Philip Hwy - North West side,,-34.72697, 138.66574,,,,
272,,Stop 59 Midway Rd - North West side,,-34.72792, 138.6776,,,,
273,,Stop 59 Midway Rd - South East side,,-34.728781, 138.67645,,,,
274,,Stop 60 Philip Hwy - South East side,,-34.7296610116098, 138.664288034225,,,,
275,,Stop 60 Philip Hwy - North West side,,-34.7296196371151, 138.664066984873,,,,
277,,Stop 58A Fairfield Rd - North West side,,-34.72952, 138.67382,,,,
278,,Stop 58A Fairfield Rd - South East side,,-34.72984, 138.67387,,,,
280,,Stop 58 Main North Rd - Western side,,-34.732553, 138.675407,,,,
281,,Stop 58 Main North Rd - Eastern side,,-34.7318227954702, 138.675867150611,,,,
282,,Stop 63 Waterloo Corner Rd - Northern side,,-34.732242, 138.5904,,,,
283,,Stop 59 Philip Hwy - North West side,,-34.7325364857286, 138.662086790654,,,,
285,,Stop 59 Philip Hwy - South East side,,-34.7330463952563, 138.662246187579,,,,
287,,Stop 58 Fairfield Rd - South East side,,-34.73161, 138.67268,,,,
288,,Stop 58 Fairfield Rd - North West side,,-34.73187, 138.6724,,,,
289,,Stop 63 Waterloo Corner Rd - South East side,,-34.734173, 138.59525,,,,
290,,Stop 57 Main North Rd - Eastern side,,-34.7342441598212, 138.67600223634,,,,
291,,Stop 57 Main North Rd - Western side,,-34.7347, 138.67549,,,,
292,,Stop 58A Blackburn Rd - North West side,,-34.7341, 138.68196,,,,
293,,Stop 65 Bolivar Rd - North West side,,-34.7355667945138, 138.617756190201,,,,
294,,Stop 58A Blackburn Rd - South East side,,-34.73414, 138.68212,,,,
295,,Stop 58 Philip Hwy - North West side,,-34.73576, 138.660191,,,,
296,,Stop 65 Bolivar Rd - South East side,,-34.7356937015453, 138.617799050963,,,,
297,,Stop 58 Philip Hwy - South East side,,-34.73614, 138.66015,,,,
298,,Stop 57B burgate Rd - Western side,,-34.7357735068543, 138.670447916527,,,,
299,,Stop 57B Burgate St - Eastern side,,-34.7358902584164, 138.670719045261,,,,
300,,Stop 66 Bolivar Rd - North West side,,-34.7375668079943, 138.615956924251,,,,
301,,Stop 66 Bolivar Rd - South East side,,-34.7379427276165, 138.615820954346,,,,
302,,Stop 64 Diment Rd - North East side,,-34.7362, 138.62025,,,,
303,,Stop 64 Diment Rd - South West side,,-34.7365, 138.62058,,,,
304,,Stop 58 Blackburn Rd - South East side,,-34.73661, 138.68055,,,,
305,,Stop 58 Blackburn Rd - North West side,,-34.73661, 138.6804,,,,
307,,Stop 56A Main North Rd - Eastern side,,-34.73856, 138.67629,,,,
308,,Stop 56A Main North Rd - Western side,,-34.7385568547453, 138.675761663722,,,,
309,,Stop 57 Hogarth Rd - Northern side,,-34.73853, 138.66008,,,,
310,,Stop 57 Hogarth Rd - Southern side,,-34.73873, 138.66024,,,,
311,,Stop 61 Waterloo Corner Rd - North East side,,-34.738062, 138.601976,,,,
313,,Stop 57A Haydown Rd - South East side,,-34.7378165772683, 138.670775972405,,,,
314,,Stop 57A Haydown Rd - North West side,,-34.73769, 138.67066,,,,
315,,Stop 61 Waterloo Corner Rd - South West side,,-34.738164, 138.601864,,,,
316,,Stop 63A Diment Rd - North East side,,-34.73825, 138.62373,,,,
317,,Stop 63A Diment Rd - South West side,,-34.73813, 138.62322,,,,
318,,Stop 67 Bolivar Rd - North West side,,-34.7394813151053, 138.614235688441,,,,
319,,Stop 60 Waterloo Corner Rd - North East side,,-34.740321, 138.605613,,,,
320,,Stop 56A Hogarth Rd - Northern side,,-34.73959, 138.66249,,,,
321,,Stop 67 Bolivar Rd - South East side,,-34.739643, 138.614366,,,,
322,,Stop 56A Hogarth Rd - Southern side,,-34.73971, 138.66248,,,,
323,,Stop 56 Hogarth Rd - Northern side,,-34.74035, 138.66432,,,,
324,,Stop 57 Bogan Rd - Southern side,,-34.73914, 138.67941,,,,
325,,Stop 56 Main North Rd - Western side,,-34.7406265997423, 138.675852769924,,,,
326,,Stop 57 Bogan Rd - Northern side,,-34.73906, 138.67949,,,,
327,,Stop 62A Diment Rd - South West side,,-34.740186, 138.626465,,,,
328,,Stop 62A Diment Rd - North East side,,-34.74014, 138.62679,,,,
329,,Stop 68 Bolivar Rd - South East side,,-34.7425365417721, 138.611686652934,,,,
331,,Stop 56 Mofflin Rd - Western side,,-34.74105, 138.6645,,,,
334,,Stop 59 Waterloo Corner Rd - North East side,,-34.743, 138.60988,,,,
335,,Stop 57 Haydown Rd - Western side,,-34.7399042072728, 138.669275617967,,,,
336,,Stop 59 Waterloo Corner Rd - South West side,,-34.74292, 138.60964,,,,
337,,Stop 57 Haydown Rd - Eastern side,,-34.7399034052716, 138.669455105442,,,,
338,,Stop 56B Hogarth Rd - Northern side,,-34.7415922477534, 138.671536914796,,,,
339,,Stop 56B Hogarth Rd - Southern side,,-34.7417673533368, 138.670380782446,,,,
341,,Stop 56 Main North Rd - North East side,,-34.7419603127659, 138.676459465115,,,,
344,,Stop 55A Mofflin Rd - Western side,,-34.74253, 138.6636,,,,
345,,Stop 55A Mofflin Rd - Eastern side,,-34.74269, 138.66365,,,,
346,,Stop 61A Whites Rd - Western side,,-34.74162, 138.62811,,,,
347,,Stop 56 Christine Av - North West side,,-34.74236, 138.68059,,,,
348,,Stop 56 Christine Av - Eastern side,,-34.74238, 138.68071,,,,
349,,Stop 58 Waterloo Corner Rd - North East side,,-34.745152460624, 138.613618728998,,,,
351,,Stop 64 Kensington Wy - Western side,,-34.7445, 138.59733,,,,
352,,Stop 61A Whites Rd - Eastern side,,-34.74233, 138.62766,,,,
353,,Stop 56A Guerin Rd - Western side,,-34.74235, 138.6737,,,,
354,,Stop 64 Kensington Wy - Western side,,-34.74483, 138.5972,,,,
355,,Stop 60A Quadrant Av - North East side,,-34.7438245675978, 138.627298168107,,,,
356,,Stop 56 Philip Hwy - Eastern side,,-34.7425878202371, 138.657632894038,,,,
357,,Stop 55 Menka St - North East side,,-34.74365, 138.6789,,,,
358,,Stop 55 Main North Rd - Western side,,-34.7442528836518, 138.67609675012,,,,
359,,Stop 56 Philip Hwy - Western side,,-34.742447491207, 138.657261906341,,,,
360,,Stop 60A Quadrant Av - Southern side,,-34.74365, 138.62695,,,,
361,,Stop 55 Menka St - Southern side,,-34.74341, 138.6788,,,,
362,,Stop 56A Guerin Rd - Eastern side,,-34.74272, 138.67386,,,,
363,,Stop 55 Mofflin Rd - Eastern side,,-34.74477, 138.66232,,,,
364,,Stop 55 Main North Rd - North East side,,-34.7446732191243, 138.676571429411,,,,
365,,Stop 55 Mofflin Rd - Western side,,-34.74503, 138.66202,,,,
366,,Stop 59A Quadrant Av - Northern side,,-34.7449046992013, 138.629062584657,,,,
367,,Stop 65 Kensington Wy - Western side,,-34.74717, 138.5962,,,,
369,,Stop 59A Quadrant Av - Southern side,,-34.7447488758146, 138.628637493871,,,,
370,,Stop 57 Waterloo Corner Rd - North East side,,-34.74666, 138.6161,,,,
371,,Stop 65 Kensington Wy - Western side,,-34.74669, 138.59626,,,,
372,,Stop 54B Henryk Dr - South East side,,-34.74517, 138.67902,,,,
373,,Stop 56 Guerin Rd - Western side,,-34.74509, 138.67294,,,,
374,,Stop 56 Guerin Rd - Eastern side,,-34.74495, 138.67318,,,,
375,,Stop 54B Henryk Dr - Western side,,-34.74567, 138.67867,,,,
378,,Stop 57 Waterloo Corner Rd - South West side,,-34.74678, 138.61586,,,,
379,,Stop 58A Quadrant Av - Northern side,,-34.746109, 138.631049,,,,
380,,Stop 56 Waterloo Corner Rd - South West side,,-34.74847, 138.61888,,,,
384,,Stop 56 Waterloo Corner Rd - North East side,,-34.74824, 138.61863,,,,
387,,Stop 54A Bungarra St - North East side,,-34.74748, 138.67871,,,,
388,,Stop 55A John Rice Av - South East side,,-34.74737, 138.6725,,,,
389,,Stop 55A John Rice Av - North West side,,-34.74733, 138.67206,,,,
390,,Stop 58A Parallel Av - North West side,,-34.746554, 138.630983,,,,
392,,Stop 54A Bungarra St - Southern side,,-34.74756, 138.67878,,,,
393,,Stop 66 Burton Rd - North East side,,-34.74878, 138.59787,,,,
394,,Stop 66 Burton Rd - South West side,,-34.7489247784302, 138.597914501293,,,,
395,,Stop 55 Waterloo Corner Rd - North East side,,-34.74933, 138.62052,,,,
396,,Stop 54 Main North Rd - North East side,,-34.74882, 138.67769,,,,
397,,Stop 54 Main North Rd - South West side,,-34.74891, 138.67737,,,,
398,,Stop 55 John Rice Av - North West side,,-34.74849, 138.66787,,,,
399,,Stop 55 John Rice Av - South East side,,-34.74875, 138.66756,,,,
400,,Stop 56A Deane St - North Western side,,-34.75003, 138.63178,,,,
401,,Stop 57A Parallel Av - Eastern side,,-34.74839, 138.629469,,,,
402,,Stop 56A Kelsey Rd - South West side,,-34.7500141730552, 138.63110815237,,,,
403,,Stop 55A Deane St - Northern side,,-34.74891, 138.63457,,,,
404,,Stop 67 Burton Rd - North East side,,-34.750099, 138.600254,,,,
405,,Stop 57A Kelsey Rd - Southern side,,-34.7491404063825, 138.629664035198,,,,
406,,Stop 55 Waterloo Corner Rd - South West side,,-34.7499, 138.62098,,,,
407,,Stop 67 Burton Rd - South West side,,-34.75038, 138.60022,,,,
408,,Stop 55A Deane St - Southern side,,-34.74903, 138.6342,,,,
409,,Stop 54A John Rice Av - North West side,,-34.7495301999501, 138.664196092077,,,,
410,,Stop 54A John Rice Av - South East side,,-34.74959, 138.66448,,,,
413,,Stop 54 Waterloo Corner Rd - North East side,,-34.75125, 138.62353,,,,
414,,Stop 54 Waterloo Corner Rd - South West side,,-34.75121, 138.62323,,,,
415,,Stop 54 John Rice Av - North West side,,-34.7502, 138.66179,,,,
416,,Stop 54 John Rice Av - South East side,,-34.75032, 138.66195,,,,
417,,Stop 53C John Rice Av - North West side,,-34.75083, 138.65968,,,,
418,,Stop 53C John Rice Av - South East side,,-34.7509230896689, 138.659828279057,,,,
419,,Stop 54A Belinda Cr - South West side,,-34.75032, 138.63541,,,,
420,,Stop 53A John Rice Av - North West side,,-34.75166, 138.6558,,,,
421,,Stop 68 Burton Rd - South West side,,-34.7517649001601, 138.602550260811,,,,
422,,Stop 53 Main North Rd - Eastern side,,-34.75168, 138.67946,,,,
424,,Stop 53 Black Top Rd - Northern side,,-34.75107, 138.68027,,,,
425,,Stop 53 Waterloo Corner Rd - Southern side,,-34.75378, 138.62731,,,,
427,,Stop 53A Motcombe Rd - Western side,,-34.75199, 138.6367,,,,
428,,Stop 44A Burton Rd - North East side,,-34.75417, 138.60674,,,,
429,,Stop 53B Hamdon Rd - Northern side,,-34.75276, 138.65689,,,,
430,,Stop 53B Jarvis Rd - Eastern side,,-34.7523908396304, 138.656466912165,,,,
432,,Stop 53 Waterloo Corner Rd - North East side,,-34.75322, 138.62702,,,,
433,,Stop 52P Halba Cr - South East side,,-34.75233, 138.62426,,,,
434,,Stop 44A Burton Rd - South West side,,-34.75385, 138.60603,,,,
435,,Stop 52P Halba Cr - North West side,,-34.75225, 138.62419,,,,
436,,Stop 52A Downton Av - South East side,,-34.7534724707301, 138.636905849386,,,,
437,,Stop 52A Downton Av - North West side,,-34.7538960426605, 138.636376506318,,,,
443,,Stop 53A Jarvis Rd - North West side,,-34.7547140631858, 138.655407757667,,,,
444,,Stop 53A Jarvis Rd - South East side,,-34.7547418393114, 138.655552136796,,,,
445,,Stop 51P Halba Cr - Eastern side,,-34.7539807075475, 138.622835064021,,,,
447,,Stop 51P Halba Cr - North West side,,-34.753951623554, 138.62269325794,,,,
448,,Stop 44B Burton Rd - South West side,,-34.7556411163928, 138.608946560738,,,,
451,,Stop 44B Burton Rd - North East side,,-34.7554775695614, 138.608929581818,,,,
452,,Stop 52A Porter St - South West side,,-34.7552688901165, 138.651303624712,,,,
453,,Stop 52A Porter St - North East side,,-34.7554339978758, 138.651787056377,,,,
454,,Stop 52 Main North Rd - North West side,,-34.7554196019277, 138.677836380658,,,,
455,,Stop 52 Main North Rd - South East side,,-34.7555117253658, 138.678258757114,,,,
456,,Stop 52 Waterloo Corner Rd - Southern side,,-34.755598735658, 138.630442401576,,,,
457,,Stop 51A Downton Av - Eastern side,,-34.7571889914689, 138.633651131015,,,,
458,,Stop 44C Burton Rd - North East side,,-34.7565092568626, 138.610620210633,,,,
459,,Stop 52 Waterloo Corner Rd - North East side,,-34.7555974514061, 138.63070115879,,,,
460,,Stop 53 Jarvis Rd - North West side,,-34.7563605843892, 138.654366032203,,,,
461,,Stop 52 Brian St - North East side,,-34.7564010781707, 138.649704254032,,,,
462,,Stop 43C Liberator Dr - Eastern side,,-34.7553205153955, 138.593906082371,,,,
463,,Stop 44C Burton Rd - South West side,,-34.7572208814927, 138.611547443627,,,,
464,,Stop 43C Liberator Dr - Western side,,-34.7551278640233, 138.593817264659,,,,
465,,Stop 52 Commercial Rd - South East side,,-34.756517946481, 138.649168999696,,,,
466,,Stop 53 Jarvis Rd - South East side,,-34.756613222027, 138.654375974442,,,,
467,,Stop 47P Whites Rd - North West side,,-34.7579092651456, 138.613611132506,,,,
468,,Stop 47P Whites Rd - South East side,,-34.7579196845512, 138.613793362463,,,,
469,,Stop 51 Waterloo Corner Rd - Southern side,,-34.7570380702412, 138.632806192432,,,,
470,,Stop 50P Vindana Rd - North West side,,-34.7557791105491, 138.622801050344,,,,
471,,Stop 45 Burton Rd - North East side,,-34.7578716986584, 138.612885483562,,,,
472,,Stop 50P Vindana Rd - South East side,,-34.75641, 138.62233,,,,
474,,Stop 48P Yalumba Dr - North East side,,-34.756672227217, 138.615951477287,,,,
475,,Stop 48P Yalumba Dr - South West side,,-34.7570393287365, 138.616320671936,,,,
476,,Stop 45 Burton Rd - South West side,,-34.7585941226834, 138.613765038528,,,,
477,,Stop 51 Main North Rd - South East side,,-34.7585088630679, 138.676448123343,,,,
478,,Stop 46P Whites Rd - South East side,,-34.7597640711823, 138.612146176636,,,,
479,,Stop 45A Burton Rd - North East side,,-34.75947, 138.61553,,,,
480,,Stop 43B Liberator Dr - Eastern side,,-34.7575810354803, 138.593571793402,,,,
481,,Stop 46P Whites Rd - North West side,,-34.7594153477273, 138.61225116839,,,,
482,,Stop 43B Liberator Dr - Western side,,-34.7576943018177, 138.593458274544,,,,
483,,Stop 51 Main North Rd - North West side,,-34.7589715938358, 138.675531875073,,,,
484,,Stop 45A Burton Rd - South West side,,-34.7599093142197, 138.615982092592,,,,
485,,Stop 50A Waterloo Corner Rd - North East side,,-34.7601480472391, 138.63687553455,,,,
486,,Stop 57 Goddard Dr - Northern side,,-34.7602646296151, 138.668182882181,,,,
487,,Stop 57 Goddard Dr - Southern side,,-34.7603339323175, 138.66804793889,,,,
488,,Stop 56A Goddard Dr - North West side,,-34.7596096475215, 138.664996909486,,,,
489,,Stop 56A Goddard Dr - Southern side,,-34.7598560384353, 138.664537873402,,,,
490,,Stop 51 Commercial Rd - South West side,,-34.76007, 138.64841,,,,
491,,Stop 43A Liberator Dr - North East side,,-34.75933, 138.59538,,,,
492,,Stop 63 Target Hill Rd - Northern side,,-34.7608970380743, 138.681686317367,,,,
493,,Stop 62A Target Hill Rd - Southern side,,-34.7603827089001, 138.67728357128,,,,
494,,Stop 50A Waterloo Corner Rd - South West side,,-34.7606113539129, 138.637138835641,,,,
495,,Stop 43A Liberator Dr - South West side,,-34.759369, 138.595228,,,,
496,,Stop 51 Commercial Rd - North East side,,-34.7602838412392, 138.648720206989,,,,
497,,Stop 45B Burton Rd - North East side,,-34.7613603483631, 138.618615416249,,,,
498,,Stop 55 Saints Rd - Southern side,,-34.7606057401726, 138.660071711693,,,,
499,,Stop 58 Carlingford Dr - South East side,,-34.7616587908938, 138.668996532417,,,,
500,,Stop 56 Goddard Dr - South East side,,-34.7603576160856, 138.662736806332,,,,
501,,Stop 58 Carlingford Dr - North West side,,-34.7616996572478, 138.668835682786,,,,
502,,Stop 56 Goddard Dr - North West side,,-34.7602352866924, 138.662765899448,,,,
503,,Stop 45B Burton Rd - South West side,,-34.7616879444716, 138.61891854883,,,,
504,,Stop 45P Whites Rd - South East side,,-34.7623254323563, 138.609859855023,,,,
505,,Stop 45P Whites Rd - North West side,,-34.7627850581903, 138.60927019679,,,,
507,,Stop 50 / A John St - Southern side,,-34.7614716140135, 138.648300745954,,,,
508,,Stop 63A Target Hill Rd - Northern side,,-34.762083263279, 138.684598511813,,,,
509,,Stop 55 Saints Rd - Northern side,,-34.7614052638332, 138.661624913764,,,,
510,,Stop 63 Target Hill Rd - South West side,,-34.7610219823195, 138.681676503567,,,,
512,,Stop 50 Main North Rd - South East side,,-34.7616537068281, 138.673789435418,,,,
513,,Stop 50 / B Ann St - Eastern side,,-34.761835, 138.648203,,,,
514,,Stop 50 Main North Rd - North West side,,-34.7616380499448, 138.673227835644,,,,
515,,Stop 50 / E Ann St - Western side,,-34.7617628748645, 138.647974257502,,,,
516,,Stop 43 Kings Rd - Southern side,,-34.7616111340013, 138.597292552342,,,,
517,,Stop 49 Church St - Western side,,-34.7626393233711, 138.64540240383,,,,
518,,Stop 58 Saints Rd - North East side,,-34.7624453258536, 138.663327241467,,,,
519,,Stop 49A Waterloo Corner Rd - South West side,,-34.7623212733944, 138.638856672085,,,,
520,,Stop 43 Kings Rd - Northern side,,-34.7615129499135, 138.597399054765,,,,
521,,Stop 54 Fenden Rd - South East side,,-34.7607714724578, 138.658739216346,,,,
522,,Stop 45C Burton Rd - North East side,,-34.763229990508, 138.621355377637,,,,
523,,Stop 50 / C Ann St - Eastern side,,-34.761965, 138.648272,,,,
525,,Zone D Salisbury Int ,,-34.76222376518, 138.6424961686,,,,
526,,Zone E Salisbury Int ,,-34.76219798876, 138.6426195502,,,,
527,,Stop 49A Waterloo Corner Rd - North East side,,-34.7613541338157, 138.638096245329,,,,
528,,Zone F Salisbury Int ,,-34.76258690618, 138.6426490545,,,,
529,,Stop 51 Waterloo Corner Rd - Northern side,,-34.7570022276708, 138.633008384534,,,,
530,,Stop 54 Fenden Rd - North West side,,-34.7607542075325, 138.658581865571,,,,
531,,Stop 58A Carlingford Dr - Eastern side,,-34.7637310998938, 138.667149679687,,,,
532,,Stop 45C Burton Rd - South West side,,-34.7633708678924, 138.621303028907,,,,
533,,Stop 48A Church St - North West side,,-34.7644972329884, 138.645841823645,,,,
534,,Zone C Salisbury Int ,,-34.7627565749596, 138.642547130585,,,,
537,,Stop 50 Salisbury Hwy - South East side,,-34.7563395092402, 138.646750357037,,,,
539,,Stop 64 Target Hill Rd - North East side,,-34.7638279835343, 138.688280171631,,,,
540,,Stop 58A Carlingford Dr - Western side,,-34.7640432657097, 138.666726888035,,,,
541,,Zone B Salisbury Int ,,-34.7630529436145, 138.64259541,,,,
542,,Stop 44P Whites Rd - South East side,,-34.7639545235386, 138.608413784696,,,,
543,,Zone H Salisbury Int ,,-34.76304082447, 138.64271208644,,,,
544,,Stop 47A Winzor St - North West side,,-34.7633622910489, 138.636063430858,,,,
545,,Stop 47 Winzor St - North West side,,-34.763023073362, 138.631357987095,,,,
546,,Stop 47A Winzor St - South East side,,-34.7634769942751, 138.635808003885,,,,
547,,Zone A Salisbury Int ,,-34.7633702441923, 138.642643690109,,,,
548,,Stop 47 Winzor St - South East side,,-34.7631814412533, 138.63164248791,,,,
549,,Zone I Salisbury Int ,,-34.763407703, 138.6427469555,,,,
550,,Stop 42B Kings Rd - Southern side,,-34.7629185005198, 138.599453260685,,,,
552,,Stop 49 Main North Rd - North West side,,-34.7637492966297, 138.671389146436,,,,
553,,Stop 62 Canterbury Dr - Western side,,-34.7627653783998, 138.6752922931,,,,
554,,Stop 52 Ponton St - North East side,,-34.7646331015092, 138.65443358425,,,,
555,,Stop 52 Ponton St - Southern side,,-34.7646557230791, 138.654273786389,,,,
556,,Stop 42B Kings Rd - Northern side,,-34.7632644319141, 138.600298559011,,,,
557,,Stop 64 Target Hill Rd - South West side,,-34.7632383284385, 138.687116516878,,,,
558,,Stop 49 Main North Rd - South East side,,-34.7642560011532, 138.671520691773,,,,
559,,Stop 44P Whites Rd - North West side,,-34.7648490750187, 138.607432731629,,,,
560,,Stop 53 Fenden Rd - North West side,,-34.7634891825997, 138.656143322296,,,,
561,,Stop 64A Target Hill Rd - North East side,,-34.7649601818649, 138.689641061544,,,,
562,,Stop 62 Canterbury Dr - Eastern side,,-34.76294122268, 138.675314058849,,,,
563,,Stop 53 Fenden Rd - South East side,,-34.7638061592105, 138.656041410652,,,,
564,,Stop 59 Saints Rd - Northern side,,-34.7654012552357, 138.668336768785,,,,
565,,Stop 45D Burton Rd - North East side,,-34.7655894959484, 138.62553503082,,,,
566,,Stop 59 Saints Rd - South West side,,-34.7655496227699, 138.668096522338,,,,
567,,Stop 45D Burton Rd - South West side,,-34.7657494493035, 138.625523631352,,,,
568,,Stop 46A Winzor St - South East side,,-34.76468, 138.62798,,,,
569,,Stop 43P Whites Rd - South East side,,-34.7663817839535, 138.606255960009,,,,
570,,Stop 42A Kings Rd - Northern side,,-34.7646472068811, 138.602587130922,,,,
571,,Stop 46A Winzor St - Western side,,-34.7645424320188, 138.627913108622,,,,
572,,Stop 43P Whites Rd - North West side,,-34.7662618508974, 138.60616268191,,,,
573,,Stop 65 Target Hill Rd - Northern side,,-34.76613927823, 138.694642240181,,,,
574,,Stop 64A Target Hill Rd - Southern side,,-34.7651625369842, 138.689763364766,,,,
575,,Stop 47 Thomas St - North East side,,-34.7662100766439, 138.637295760592,,,,
577,,Stop 61A Canterbury Dr - Southern side,,-34.7655208658502, 138.673903055573,,,,
579,,Stop 45 Winzor St - North West side,,-34.767132179539, 138.623815641562,,,,
580,,Stop 60 The Grove Wy - Southern side,,-34.7669986895596, 138.671102780716,,,,
581,,Stop 76 Golden Grove Rd - North Eastern side,,-34.7660925343247, 138.713795434379,,,,
582,,Stop 61A Canterbury Dr - Northern side,,-34.7659361635798, 138.674978785666,,,,
583,,Stop 60 The Grove Wy - Northern side,,-34.7669224415202, 138.671596997509,,,,
584,,Stop 45 Winzor St - South East side,,-34.7672469011715, 138.623945901735,,,,
585,,Stop 65A Target Hill Rd - Northern side,,-34.7672680270265, 138.698549706708,,,,
586,,Stop 46 Salisbury Hwy - Eastern side,,-34.766892775432, 138.637567515296,,,,
587,,Stop 48 Park Tce - North East side,,-34.7680367655856, 138.651016973141,,,,
588,,Stop 65 Target Hill Rd - Southern side,,-34.766331112549, 138.694789545897,,,,
589,,Stop 48 Park Tce - South West side,,-34.768106796989, 138.650841373053,,,,
590,,Stop 46 Salisbury Hwy - North West side,,-34.7669061365979, 138.637260934676,,,,
591,,Stop 60A The Grove Wy - Northern side,,-34.7677048821858, 138.673689798633,,,,
592,,Stop 74A Golden Grove Rd - South East side,,-34.7700410451364, 138.708463576528,,,,
593,,Stop 60A The Grove Wy - Southern side,,-34.7678479924453, 138.673497929062,,,,
594,,Stop 45C Spains Rd - South East side,,-34.76657, 138.62693,,,,
595,,Stop 74A Golden Grove Rd - North West side,,-34.7701115424252, 138.708260556337,,,,
596,,Stop 45C Spains Rd - Northern side,,-34.76664, 138.6273,,,,
599,,Stop 65A Target Hill Rd - Southern side,,-34.767361498157, 138.69824559434,,,,
601,,Stop 42A Kings Rd - Southern side,,-34.7645521950908, 138.602164659928,,,,
602,,Stop 61 Canterbury Dr - Western side,,-34.7675419544115, 138.676325889229,,,,
603,,Stop 61 Canterbury Dr - Eastern side,,-34.767677275839, 138.676438969945,,,,
604,,Stop 48A Main North Rd - South East side,,-34.7685587112448, 138.667666086727,,,,
605,,Stop 47D Park Tce - North East side,,-34.7698863517835, 138.654018586706,,,,
606,,Stop 47D Park Tce - Southern side,,-34.7699196019175, 138.653745561183,,,,
607,,Stop 47B Cross Keys Rd - Eastern side,,-34.770728693524, 138.650000963312,,,,
608,,Stop 73 The Golden Wy - Eastern side,,-34.7700813494563, 138.718867442711,,,,
609,,Stop 45B Spains Rd - Northern side,,-34.7685049023292, 138.630360062003,,,,
610,,Stop 48A Main North Rd - North West side,,-34.7690621860768, 138.6667254115,,,,
611,,Stop 45B Spains Rd - Southern side,,-34.7682820673217, 138.629729885636,,,,
612,,Stop 43 Martins Rd - Western side,,-34.77014, 138.61853,,,,
613,,Stop 73 The Golden Wy - Western side,,-34.7700362450382, 138.718685889211,,,,
614,,Stop 43 Martins Rd - Eastern side,,-34.7692578839699, 138.619513560533,,,,
615,,Stop 45 Salisbury Hwy - Western side,,-34.7692635701729, 138.635141132052,,,,
616,,Stop 47B Cross Keys Rd - Western side,,-34.7704038739286, 138.650112146446,,,,
617,,Stop 45 Salisbury Hwy - Eastern side,,-34.7694479069821, 138.635273330749,,,,
618,,Stop 75 Target Hill Rd - Southern side,,-34.770447727934, 138.705520080142,,,,
619,,Stop 75 Target Hill Rd - Northern side,,-34.7705822809868, 138.705977028032,,,,
620,,Stop 77 Golden Grove Rd - Northern side,,-34.7683655097241, 138.7174668325,,,,
621,,Stop 47C Park Tce - North East side,,-34.7711831640515, 138.656177653921,,,,
623,,Stop 47C Park Tce - South West side,,-34.771473288594, 138.65622964551,,,,
624,,Stop 77 Golden Grove Rd - Southern side,,-34.76845, 138.7174,,,,
627,,Stop 63A Target Hill Rd - Southern side,,-34.7623399132068, 138.684916169842,,,,
628,,Stop 47A Cross Keys Rd - Eastern side,,-34.7729657938786, 138.647993038983,,,,
629,,Stop 72 The Golden Wy - Western side,,-34.7728969127155, 138.717541894132,,,,
630,,Stop 44 Salisbury Hwy - Western side,,-34.7716062974832, 138.632995971921,,,,
631,,Stop 44 Salisbury Hwy - South East side,,-34.7719094667484, 138.633060923094,,,,
632,,Stop 40P Andrew Smith Dr - Eastern side,,-34.7714210320047, 138.610255875193,,,,
633,,Stop 40P Hemming St - Western side,,-34.772798872993, 138.608746000901,,,,
635,,Stop 47B Park Tce - North East side,,-34.7729933590624, 138.659131831372,,,,
637,,Stop 47B Park Tce - South West side,,-34.7729226391722, 138.658693250435,,,,
639,,Stop 47A Cross Keys Rd - Western side,,-34.7732662310265, 138.647542704266,,,,
640,,Stop 42 Martins Rd - Western side,,-34.7717650023262, 138.617077611417,,,,
641,,Stop 48 Main North Rd - Eastern side,,-34.7724373269937, 138.664226511013,,,,
642,,Stop 42 Martins Rd - Eastern side,,-34.7724108025873, 138.616743316933,,,,
643,,Stop 48 Main North Rd - Western side,,-34.7724540725796, 138.663702177745,,,,
645,,Stop 39P Hemming St - Eastern side,,-34.7741928603135, 138.608908503238,,,,
646,,Stop 39C Andrew Smith Dr - Northern side,,-34.772450063691, 138.605482579262,,,,
649,,Stop 39C Andrew Smith Dr - Southern side,,-34.7725765077651, 138.605643027959,,,,
650,,Stop 47A Park Tce - South West side,,-34.7742361280229, 138.660847657806,,,,
651,,Stop 47A Park Tce - North East side,,-34.77400876685, 138.660879067205,,,,
652,,Stop 47 Main North Rd - North West side,,-34.7737844582869, 138.662514166517,,,,
654,,Stop 39A Jamison St - North West side,,-34.7735323162622, 138.600241568237,,,,
655,,Stop 43 Salisbury Hwy - Eastern side,,-34.7742451540585, 138.630980078933,,,,
656,,Stop 39A Jamison St - Southern side,,-34.7736626174751, 138.600241963822,,,,
657,,Stop 39B Jamison St - North East side,,-34.7744056689894, 138.602647051396,,,,
658,,Stop 39B Jamison St - South West side,,-34.7745045303907, 138.602728067137,,,,
659,,Stop 47 Cross Keys Rd - Southern side,,-34.7757489529488, 138.645497618219,,,,
661,,Stop 43 Salisbury Hwy - Western side,,-34.7744073443068, 138.630477436312,,,,
662,,Stop 47 Cross Keys Rd - North West side,,-34.7753749049874, 138.645663254144,,,,
663,,Stop 47 Smith St - Northern side,,-34.7753078425558, 138.66293426954,,,,
664,,Stop 47 Smith St - Southern side,,-34.7752725241513, 138.662556028571,,,,
665,,Stop 71 The Golden Wy - Western side,,-34.7754494821916, 138.715722938951,,,,
666,,Stop 45C Buckingham Dr - North East side,,-34.7755102158148, 138.671476061538,,,,
667,,Stop 45C Buckingham Dr - South West side,,-34.7753353846811, 138.671220929144,,,,
668,,Stop 40B Lavender Dr - South East side,,-34.776187718844, 138.618384730303,,,,
669,,Stop 47 Main North Rd - South East side,,-34.775433456862, 138.661542311838,,,,
671,,Stop 40B Lavender Dr - North West side,,-34.7758397563178, 138.618639868553,,,,
672,,Stop 46B Smith St - Northern side,,-34.7767614508447, 138.665261261372,,,,
673,,Stop 39 Whites Rd - Eastern side,,-34.7752986170652, 138.598257355973,,,,
674,,Stop 42 Salisbury Hwy - Western side,,-34.7758631569938, 138.629177206472,,,,
675,,Stop 39 Whites Rd - Western side,,-34.7748959424818, 138.598450167161,,,,
676,,Stop 46B Smith St - Southern side,,-34.7771148949844, 138.665581597088,,,,
677,,Stop 46 Gloucester Rd - Eastern side,,-34.7770377820765, 138.668127177269,,,,
678,,Stop 42 Salisbury Hwy - Eastern side,,-34.7763583663098, 138.629088501568,,,,
679,,Stop 40 Lobelia Dr - Northern side,,-34.7786430483936, 138.614084746159,,,,
680,,Stop 46 Gloucester Rd - Western side,,-34.7766394715862, 138.668277738721,,,,
682,,Stop 40A Lavender Dr - South East side,,-34.77758, 138.61564,,,,
683,,Stop 65 Victoria Rd - South West side,,-34.7770254038165, 138.489119602403,,,,
684,,Stop 45B Buckingham Dr - North East side,,-34.7785246176465, 138.674007713578,,,,
685,,Stop 45B Buckingham Dr - South West side,,-34.7784995724034, 138.673730722947,,,,
686,,Stop 46B Frost Rd - Northern side,,-34.7776353180483, 138.64527483747,,,,
687,,Stop 46B Frost Rd - South West side,,-34.777781189111, 138.645292561093,,,,
688,,Stop 38C Shepherdson Rd - North East side,,-34.7769657315704, 138.600355295839,,,,
689,,Stop 38C Shepherdson Rd - South West side,,-34.7770900199571, 138.600341591107,,,,
690,,Stop 41 Salisbury Hwy - South East side,,-34.7780080374725, 138.627610490418,,,,
691,,Stop 40A Lavender Dr - North West side,,-34.7767859556534, 138.616327904978,,,,
692,,Stop 66 The Golden Wy - South Eastern side,,-34.7868415190282, 138.702896744165,,,,
693,,Stop 70 The Golden Wy - Western side,,-34.7783728891714, 138.7120240733,,,,
694,,Stop 41 Salisbury Hwy - Western side,,-34.7781789881905, 138.627106586473,,,,
696,,Stop 46 Main North Rd - North West side,,-34.7782975688795, 138.658476316809,,,,
697,,Stop 66 Oliver Rogers Dr - South East side,,-34.7784193207473, 138.483961859872,,,,
698,,Stop 46 Main North Rd - South East side,,-34.7786785876958, 138.658630136343,,,,
699,,Stop 40 Lobelia Dr - Southern side,,-34.7788641415108, 138.613054295855,,,,
702,,Stop 64A Victoria Rd - South West side,,-34.7788254057416, 138.492863644479,,,,
703,,Stop 69 The Golden Wy - Eastern side,,-34.7810558678444, 138.709638974964,,,,
704,,Stop 46A Frost Rd - South West side,,-34.7789362657468, 138.647191849202,,,,
705,,Stop 46A Smith Rd - Northern side,,-34.7784797387345, 138.66807065549,,,,
706,,Stop 38B Shepherdson Rd - Southern side,,-34.7785839112573, 138.602797433893,,,,
707,,Stop 45A Bridge Rd - South East side,,-34.7802888584955, 138.673278955771,,,,
708,,Stop 38B Shepherdson Rd - Northern side,,-34.7785329781823, 138.602936331193,,,,
709,,Stop 46A Frost Rd - North East side,,-34.7790657215182, 138.647634706462,,,,
710,,Stop 45A Bridge Rd - North West side,,-34.78006083865, 138.673129237049,,,,
711,,Stop 69 The Golden Wy - Western side,,-34.7809765344074, 138.70946243151,,,,
712,,Stop 46A Smith Rd - Southern side,,-34.7786093848392, 138.668029133708,,,,
713,,Stop 69 Atlantis Dr - Southern side,,-34.7799984265216, 138.708998472917,,,,
715,,Stop 38 Shepherdson Rd - North East side,,-34.7814857713648, 138.607792096207,,,,
716,,Stop 69 Atlantis Dr - Northern side,,-34.7800024627339, 138.709332936024,,,,
717,,Stop 68 Atlantis Dr - South East side,,-34.7801521879274, 138.706254403181,,,,
718,,Stop 64 Victoria Rd - South West side,,-34.7800366194549, 138.495432533081,,,,
719,,Stop 68 Atlantis Dr - North West side,,-34.7799592461846, 138.706730182941,,,,
720,,Stop 67 Atlantis Dr - Eastern side,,-34.7805928777197, 138.702907800605,,,,
721,,Stop 38A Shepherdson Rd - North East side,,-34.7797206160591, 138.604913399802,,,,
722,,Stop 38A Shepherdson Rd - South West side,,-34.779773647366, 138.604718789679,,,,
724,,Stop 46 Frost Rd - South West side,,-34.78073, 138.65012,,,,
725,,Stop 40 Salisbury Hwy - Eastern side,,-34.7810815365033, 138.624876118276,,,,
726,,Stop 46 Frost Rd - North East side,,-34.78059, 138.65013,,,,
727,,Stop 45 Bridge Rd - South East side,,-34.7823601801285, 138.671251078889,,,,
728,,Stop 45 Bridge Rd - North West side,,-34.7821963262194, 138.671088665002,,,,
729,,Stop 40 Salisbury Hwy - Western side,,-34.7811559482537, 138.624447194541,,,,
730,,Stop 66 Atlantis Dr - Eastern side,,-34.7827575844643, 138.70209726192,,,,
731,,Stop 67 Lady Ruthven Dr - North East side,,-34.7814263140013, 138.484778748247,,,,
733,,Stop 67 Atlantis Dr - Western side,,-34.780281629537, 138.703272397965,,,,
735,,Stop 63 Victoria Rd - South West side,,-34.7820251195155, 138.499250224369,,,,
736,,Stop 37 Shepherdson Rd - North East side,,-34.7829565946219, 138.610183643074,,,,
737,,Stop 37 Shepherdson Rd - South West side,,-34.7830856040305, 138.610157149296,,,,
738,,Stop 45 Main North Rd - Western side,,-34.7825036220273, 138.654711459886,,,,
739,,Stop 45A Frost Rd - South West side,,-34.7822052827888, 138.652506818923,,,,
740,,Stop 45A Frost Rd - North East side,,-34.7820204493469, 138.65247308772,,,,
742,,Stop 36C Oleander Dr - South East side,,-34.7844092927052, 138.61125536113,,,,
744,,Stop 39 Salisbury Hwy - Eastern side,,-34.7832018552806, 138.622985744482,,,,
745,,Stop 68 The Golden Wy - North Western side,,-34.783891297024, 138.707747458668,,,,
746,,Stop 68 Lady Ruthven Dr - North East side,,-34.78308, 138.48843,,,,
747,,Stop 44B Bridge Rd - Eastern side,,-34.7841690606586, 138.669436931132,,,,
748,,Stop 44B Bridge Rd - Western side,,-34.7842129186576, 138.66920516353,,,,
749,,Stop 39 Salisbury Hwy - Western side,,-34.78307, 138.6228,,,,
751,,Stop 36C Oleander Dr - North West side,,-34.784370310627, 138.611119439968,,,,
752,,Stop 68 The Golden Wy - Eastern side,,-34.78326, 138.70854,,,,
753,,Stop 45 Main North Rd - Eastern side,,-34.7841650788816, 138.653690204531,,,,
754,,Stop 45 Clayson Rd - North East side,,-34.78369, 138.65529,,,,
755,,Stop 65 Atlantis Dr - Eastern side,,-34.7858, 138.69958,,,,
756,,Stop 66 Atlantis Dr - Western side,,-34.78315, 138.70186,,,,
757,,Stop 45 Clayson Rd - South West side,,-34.78391, 138.65542,,,,
758,,Stop 58 John Rd - Northern side,,-34.78435, 138.71409,,,,
759,,Stop 58 John Rd - Southern side,,-34.78463, 138.71398,,,,
760,,Stop 67 The Golden Wy - South Eastern side,,-34.78484, 138.70703,,,,
761,,Stop 38 Salisbury Hwy - North West side,,-34.78468, 138.6213,,,,
762,,Stop 44A Bridge Rd - Eastern side,,-34.7863081992164, 138.6675182651,,,,
765,,Stop 36B Oleander Dr - South East side,,-34.78663, 138.60974,,,,
766,,Stop 44A Bridge Rd - Western side,,-34.786717541613, 138.666961300432,,,,
767,,Stop 36B Oleander Dr - North West side,,-34.78676, 138.60948,,,,
768,,Stop 38 Salisbury Hwy - South East side,,-34.7856250077489, 138.620829952635,,,,
769,,Stop 62 Victoria Rd - Western side,,-34.78559, 138.50122,,,,
770,,Stop 44D Northbri Av - Eastern side,,-34.785, 138.65657,,,,
771,,Stop 57 John Rd - Southern side,,-34.78568, 138.71616,,,,
772,,Stop 57 John Rd - Northern side,,-34.78569, 138.71639,,,,
774,,Stop 69 Lady Gowrie Dr - Eastern side,,-34.78613, 138.4899,,,,
775,,Stop 59 Bicentenial Dr - Eastern side,,-34.78507, 138.7124,,,,
776,,Stop 59 Bicentenial Dr - Western side,,-34.78496, 138.7124,,,,
778,,Stop 66 The Golden Wy - North Western side,,-34.78653, 138.70294,,,,
779,,Stop 62 The Grove Wy - North East side,,-34.79365, 138.69865,,,,
780,,Stop 44D Northbri Av - Western side,,-34.78501, 138.65633,,,,
781,,Stop 65 Atlantis Dr - Western side,,-34.78542, 138.69976,,,,
782,,Stop 64 Atlantis Dr - Eastern side,,-34.7878006549414, 138.698425750215,,,,
783,,Stop 59A Bicentenial Dr - South East side,,-34.78712, 138.70912,,,,
784,,Stop 59A Bicentenial Dr - North West side,,-34.78676, 138.70973,,,,
785,,Stop 44 Main North Rd - Western side,,-34.78726, 138.65049,,,,
786,,Stop 56 Golden Grove Rd - North West side,,-34.78753, 138.71552,,,,
787,,Stop 71 The Golden Wy - South Eastern side,,-34.77522, 138.71616,,,,
788,,Stop 44 Bridge Rd - Eastern side,,-34.7891456431041, 138.66499001997,,,,
789,,Stop 44 Main North Rd - Eastern side,,-34.78776, 138.65057,,,,
790,,Stop 37 Salisbury Hwy - South East side,,-34.78778, 138.61892,,,,
791,,Stop 56 Golden Grove Rd - South East side,,-34.787711, 138.71565,,,,
792,,Stop 65 The Golden Wy - North West side,,-34.78849, 138.70109,,,,
793,,Stop 44 Bridge Rd - Western side,,-34.789142215908, 138.664783550077,,,,
794,,Stop 36A Oleander Dr - Eastern side,,-34.78889, 138.60783,,,,
795,,Stop 70 Lady Gowrie Dr - Eastern side,,-34.78806, 138.49005,,,,
797,,Stop 60 Bicentenial Dr - North West side,,-34.78762, 138.70698,,,,
798,,Stop 36A Oleander Dr - Western side,,-34.79008, 138.60712,,,,
799,,Stop 64 Atlantis Dr - Western side,,-34.78774, 138.6983,,,,
800,,Stop 65 The Golden Wy - Eastern side,,-34.78821, 138.70164,,,,
801,,Stop 37 Salisbury Hwy - North West side,,-34.7886442245883, 138.617750924141,,,,
802,,Stop 61 Victoria Rd - Western side,,-34.78892, 138.50134,,,,
804,,Stop 44C Northbri Av - Western side,,-34.78744, 138.65517,,,,
805,,Stop 60A Bicentenial Dr - South East side,,-34.78889, 138.70547,,,,
806,,Stop 60A Bicentenial Dr - North West side,,-34.78896, 138.70524,,,,
807,,Stop 43 Main North Rd - Western side,,-34.78951, 138.6488,,,,
808,,Stop 43 Main North Rd - Eastern side,,-34.7896974133494, 138.649077566766,,,,
809,,Stop 71 Lady Gowrie Dr - Eastern side,,-34.78964, 138.49042,,,,
810,,Stop 64 The Golden Wy - Northern side,,-34.79011, 138.69834,,,,
812,,Stop 64 The Golden Wy - South Eastern side,,-34.79007, 138.69923,,,,
814,,Stop 43D Bridge Rd - Western side,,-34.79181, 138.66241,,,,
815,,Stop 55 Golden Grove Rd - South East side,,-34.79079, 138.71282,,,,
816,,Stop 55 Golden Grove Rd - Western side,,-34.79055, 138.71285,,,,
818,,Stop 43D Bridge Rd - Eastern side,,-34.79214, 138.66231,,,,
819,,Zone D Golden Grove Int ,,-34.79081, 138.69355,,,,
820,,Stop 44B Northbri Av - Western side,,-34.7904, 138.65435,,,,
821,,Zone A Golden Grove Int ,,-34.7909246223393, 138.69355966618,,,,
822,,Zone E Golden Grove Int ,,-34.7908804567727, 138.693342920664,,,,
823,,Zone C Golden Grove Int ,,-34.7909818858997, 138.693430628234,,,,
824,,Zone B Golden Grove Int ,,-34.7909512334587, 138.693356264519,,,,
826,,Stop 36 Oleander Dr - North West side,,-34.79235, 138.60592,,,,
828,,Stop 36 Oleander Dr - South East side,,-34.79209, 138.6064,,,,
831,,Stop 36 Salisbury Hwy - South East side,,-34.7916382538404, 138.615434962904,,,,
832,,Stop 36 Salisbury Hwy - North West side,,-34.7914268953926, 138.615246967384,,,,
833,,Stop 60A Osborne Rd - Northern side,,-34.79177, 138.49982,,,,
834,,Stop 44A Northbri Av - Eastern side,,-34.79216, 138.65281,,,,
835,,Stop 44A Northbri Av - Western side,,-34.791932, 138.65293,,,,
839,,Stop 54 Golden Grove Rd - South East side,,-34.79255, 138.71121,,,,
841,,Stop 54 Golden Grove Rd - North West side,,-34.79246, 138.7111,,,,
842,,Stop 43C Bridge Rd - Western side,,-34.7939338115761, 138.660510036566,,,,
843,,Stop 43C Bridge Rd - Eastern side,,-34.79358, 138.66101,,,,
844,,Stop 59 Military Rd - Western side,,-34.79319, 138.49656,,,,
845,,Stop 44 Northbri Av - South East side,,-34.79345, 138.65111,,,,
846,,Stop 35 Salisbury Hwy - South East side,,-34.7933009790275, 138.613951441609,,,,
847,,Stop 59 Military Rd - Eastern side,,-34.79333, 138.49679,,,,
848,,Stop 35 Salisbury Hwy - North West side,,-34.79319, 138.61368,,,,
849,,Stop 44 Northbri Av - North West side,,-34.793481, 138.650846,,,,
853,,Stop 60 Victoria Rd - Eastern side,,-34.7937463361044, 138.501625469143,,,,
854,,Stop 60 Victoria Rd - Western side,,-34.7939439923621, 138.501292609683,,,,
855,,Stop 41 Main North Rd - Western side,,-34.7938408885591, 138.644890624728,,,,
856,,Stop 41 Main North Rd - Eastern side,,-34.7939305982983, 138.645299672509,,,,
857,,Stop 65 Yatala Vale Rd - Northern side,,-34.79471, 138.7297,,,,
858,,Stop 66 Yatala Vale Rd - Northern side,,-34.79433, 138.72667,,,,
859,,Stop 66 Yatala Vale Rd - Southern side,,-34.79451, 138.7265,,,,
860,,Stop 43C Mcintyre Rd - Northern side,,-34.79542, 138.65306,,,,
861,,Stop 65 Yatala Vale Rd - Southern side,,-34.79523, 138.7305,,,,
862,,Stop 53 Golden Grove Rd - Western side,,-34.79472, 138.70919,,,,
863,,Stop 62 The Golden Wy - Eastern side,,-34.79489, 138.68965,,,,
864,,Stop 67 Yatala Vale Rd - Northern side,,-34.79447, 138.7232,,,,
865,,Stop 67 Yatala Vale Rd - Southern side,,-34.79463, 138.72338,,,,
868,,Stop 68 Yatala Vale Rd - Northern side,,-34.79486, 138.71865,,,,
869,,Stop 43B Bridge Rd - Western side,,-34.7964684741511, 138.65829664014,,,,
871,,Stop 68 Yatala Vale Rd - Southern side,,-34.79511, 138.71857,,,,
872,,Stop 43C Mcintyre Rd - Southern side,,-34.79522, 138.65245,,,,
873,,Stop 43B Bridge Rd - Eastern side,,-34.7966173263723, 138.658496215831,,,,
874,,Stop 64 Yatala Vale Rd - Northern side,,-34.79608, 138.7329,,,,
875,,Stop 34R Salisbury Hwy - South East side,,-34.79556, 138.61193,,,,
876,,Stop 34R Salisbury Hwy - North West side,,-34.79542, 138.61172,,,,
877,,Stop 62 The Golden Wy - Western side,,-34.79562, 138.68813,,,,
878,,Stop 64 Yatala Vale Rd - Southern side,,-34.7957, 138.73165,,,,
881,,Stop 59 Victoria Rd - Eastern side,,-34.796007925052, 138.501605995455,,,,
883,,Stop 43B Mcintyre Rd - Southern side,,-34.79699, 138.65525,,,,
885,,Stop 40 Main North Rd - Western side,,-34.7963, 138.6427,,,,
888,,Stop 59 Victoria Rd - Western side,,-34.7964902111869, 138.501253684201,,,,
889,,Stop 53 Golden Grove Rd - Eastern side,,-34.79644, 138.70833,,,,
892,,Stop 40 Main North Rd - Eastern side,,-34.79686, 138.64274,,,,
893,,Stop 58 Military Rd - Western side,,-34.79688, 138.49649,,,,
894,,Stop 60 Wynn Vale Dr - Northern side,,-34.79692, 138.68268,,,,
895,,Stop 60 Wynn Vale Dr - Southern side,,-34.79699, 138.68304,,,,
897,,Stop 58 Military Rd - Eastern side,,-34.79707, 138.49676,,,,
898,,Stop 61 Wynn Vale Dr - Southern side,,-34.79721, 138.68564,,,,
899,,Stop 59 Hancock Rd - Western side,,-34.79686, 138.71678,,,,
900,,Stop 59 Avalon Dr - North East side,,-34.79853, 138.69335,,,,
901,,Stop 61 Wynn Vale Dr - Northern side,,-34.7972, 138.68617,,,,
902,,Stop 52 Golden Grove Rd - Western side,,-34.79727, 138.7077,,,,
903,,Stop 59 Hancock Rd - Eastern side,,-34.7963935133106, 138.716991077932,,,,
904,,Stop 63B Yatala Vale Rd - Northern side,,-34.79736, 138.73624,,,,
905,,Stop 63B Yatala Vale Rd - Southern side,,-34.79725, 138.73553,,,,
906,,Stop 59 Avalon Dr - South West side,,-34.7986168537471, 138.693261410177,,,,
907,,Stop 59 Wynn Vale Dr - Northern side,,-34.79782, 138.67972,,,,
908,,Stop 59 Wynn Vale Dr - Southern side,,-34.7979, 138.67987,,,,
910,,Stop 58 Wynn Vale Dr - Northern side,,-34.79783, 138.67717,,,,
911,,Stop 58 Wynn Vale Dr - Southern side,,-34.79793, 138.67684,,,,
913,,Stop 52 Golden Grove Rd - Eastern side,,-34.79816, 138.70731,,,,
914,,Stop 63A Katarama Rd - North West side,,-34.79895, 138.735678,,,,
916,,Stop 63A Katarama Rd - South East side,,-34.79907, 138.73541,,,,
917,,Stop 58 Victoria Rd - Eastern side,,-34.79897, 138.50161,,,,
918,,Stop 63 Katarama Rd - North West side,,-34.79907, 138.73299,,,,
919,,Stop 58 Victoria Rd - Western side,,-34.7989619961723, 138.501258890465,,,,
920,,Stop 62 Katarama Rd - Northern side,,-34.79915, 138.72992,,,,
921,,Stop 62 Katarama Rd - Southern side,,-34.79918, 138.72975,,,,
922,,Stop 58 Richardson Rd - South East side,,-34.8002304754638, 138.693470419862,,,,
923,,Stop 57 Keithcote Farm Dr - Western side,,-34.79935, 138.67583,,,,
925,,Stop 58 Hancock Rd - Eastern side,,-34.7987340090167, 138.717149831599,,,,
926,,Stop 58 Hancock Rd - Western side,,-34.7987327850599, 138.716906858629,,,,
927,,Stop 39 Main North Rd - Eastern side,,-34.79965, 138.6401,,,,
928,,Stop 58 Richardson Rd - North West side,,-34.80003, 138.69359,,,,
929,,Stop 43 Bridge Rd - Eastern side,,-34.79941, 138.656,,,,
930,,Stop 39 Main North Rd - Western side,,-34.79996, 138.63945,,,,
931,,Stop 57 Keithcote Farm Dr - Eastern side,,-34.8000086754767, 138.676127048703,,,,
932,,Stop 61 Hamilton Rd - Eastern side,,-34.80096, 138.73098,,,,
933,,Stop 51 Golden Grove Rd - Eastern side,,-34.80014, 138.70612,,,,
934,,Stop 61 Hamilton Rd - Western side,,-34.80122, 138.73085,,,,
936,,Stop 57 Military Rd - Western side,,-34.80059, 138.49645,,,,
937,,Stop 57 Victoria Rd - Eastern side,,-34.80082, 138.50161,,,,
938,,Stop 57 Richardson Dr - North West side,,-34.8007932015763, 138.68963693127,,,,
939,,Stop 57 Richardson Dr - South East side,,-34.8008247719634, 138.689846876488,,,,
940,,Stop 51 Golden Grove Rd - Western side,,-34.80057, 138.7057,,,,
941,,Stop 57 Military Rd - Eastern side,,-34.80077, 138.49678,,,,
942,,Stop 43 Bridge Rd - Western side,,-34.7993107998802, 138.655828800811,,,,
944,,Stop 57 Victoria Rd - Western side,,-34.8013442650945, 138.501241165006,,,,
945,,Stop 56 Keithcote Farm Dr - Southern side,,-34.80156, 138.67878,,,,
946,,Stop 56 Richardson Dr - Eastern side,,-34.8029183237464, 138.687437297838,,,,
947,,Stop 56 Keithcote Farm Dr - Northern side,,-34.80159, 138.67965,,,,
948,,Stop 57 Hancock Rd - Eastern side,,-34.8022063668641, 138.717447275689,,,,
949,,Stop 57 Hancock Rd - Western side,,-34.8023528678906, 138.717185224874,,,,
950,,Stop 62 Illyarrie Av - South East side,,-34.8019825801172, 138.710926559552,,,,
952,,Stop 62 Illyarrie Av - Northern side,,-34.80185, 138.7098,,,,
953,,Stop 61 Illyarrie Av - Northern side,,-34.8019947548297, 138.708530738607,,,,
954,,Stop 61 Illyarrie Av - Southern side,,-34.8020501950436, 138.709137070427,,,,
955,,Stop 56 Richardson Dr - Western side,,-34.802948907217, 138.687290106471,,,,
956,,Stop 42A Bridge Rd - Eastern side,,-34.80222, 138.65349,,,,
957,,Stop 55 Hillendale Dr - Western side,,-34.80286, 138.68095,,,,
958,,Stop 42A Bridge Rd - Western side,,-34.8018055829681, 138.65359703114,,,,
959,,Stop 60 Hamilton Rd - Eastern side,,-34.80476, 138.73145,,,,
960,,Stop 55 Hillendale Dr - Eastern side,,-34.80317, 138.68082,,,,
961,,Stop 60 Hamilton Rd - Western side,,-34.8045, 138.73128,,,,
962,,Stop 56 Victoria Rd - Western side,,-34.80307, 138.50126,,,,
963,,Stop 56 Hancock Rd - Eastern side,,-34.80506, 138.71763,,,,
964,,Stop 56 Victoria Rd - Eastern side,,-34.8034575205769, 138.501574826719,,,,
965,,Stop 56 Hancock Rd - Western side,,-34.8044834567233, 138.717335329871,,,,
966,,Stop 41E Nelson Rd - South West side,,-34.80378, 138.65963,,,,
967,,Stop 56 Military Rd - Western side,,-34.80362, 138.49647,,,,
968,,Stop 60 Illyarrie Dr - South East side,,-34.80402, 138.70671,,,,
969,,Stop 55 Grenfell Rd - Northern side,,-34.80416, 138.68907,,,,
970,,Stop 60 Illyarrie Av - North West side,,-34.80408, 138.70648,,,,
971,,Stop 55 Grenfell Rd - Southern side,,-34.80432, 138.68857,,,,
972,,Stop 42 Bridge Rd - Eastern side,,-34.8043992139221, 138.651526977034,,,,
973,,Stop 40 Kesters Rd - Northern side,,-34.8043407389866, 138.645412541746,,,,
974,,Stop 33A Elder Dr - Western side,,-34.806285, 138.606383,,,,
975,,Stop 33 Salisbury Hwy - Eastern side,,-34.80548, 138.60309,,,,
977,,Stop 42 Liberman Rd - Western side,,-34.8040686621177, 138.657511448405,,,,
978,,Stop 56 Military Rd - Eastern side,,-34.80485, 138.49672,,,,
979,,Stop 42 Bridge Rd - Western side,,-34.803491, 138.652085,,,,
980,,Stop 50 Golden Grove Rd - Western side,,-34.80476, 138.70188,,,,
981,,Stop 40A Kesters Rd - North East side,,-34.8056873334262, 138.647717572983,,,,
982,,Stop 59 Haines Rd - Western side,,-34.80554, 138.72981,,,,
983,,Stop 59 Haines Rd - Eastern side,,-34.80579, 138.73002,,,,
984,,Stop 59 Illyarrie Av - Southern side,,-34.80512, 138.70459,,,,
985,,Stop 54 Ladywood Rd - Eastern side,,-34.8059302194264, 138.68797774409,,,,
986,,Stop 50 Golden Grove Rd - Eastern side,,-34.80548, 138.70153,,,,
987,,Stop 41D Nelson Rd - South West side,,-34.80543, 138.65985,,,,
988,,Stop 54 Hillendale Dr - Western side,,-34.8055, 138.68041,,,,
989,,Stop 54 Ladywood Rd - Western side,,-34.8058248118398, 138.688110822884,,,,
990,,Stop 59 Illyarrie Av - Western side,,-34.8056, 138.70339,,,,
991,,Stop 55 Victoria Rd - Eastern side,,-34.80592, 138.50156,,,,
992,,Stop 55 Grenfell Rd - Southern side,,-34.80581, 138.71528,,,,
993,,Stop 56 Grenfell Rd - Northern side,,-34.80569, 138.71271,,,,
994,,Stop 54 Hillendale Dr - Eastern side,,-34.80583, 138.68065,,,,
995,,Stop 56 Grenfell Rd - Southern side,,-34.80597, 138.71281,,,,
996,,Stop 38 Main North Rd - North West side,,-34.80598, 138.63407,,,,
997,,Stop 57 Grenfell Rd - Northern side,,-34.80597, 138.70901,,,,
998,,Stop 38 Main North Rd - South East side,,-34.8060078510343, 138.634497593162,,,,
999,,Stop 57 Grenfell Rd - Southern side,,-34.8062, 138.70917,,,,
1000,,Stop 58 Grenfell Rd - Northern side,,-34.8061, 138.70565,,,,
1001,,Stop 58 Grenfell Rd - Southern side,,-34.80629, 138.70617,,,,
1002,,Stop 55 Cronulla Dr - South East side,,-34.8062431567361, 138.716272790102,,,,
1003,,Stop 49 Golden Grove Rd - North West side,,-34.80618, 138.70018,,,,
1004,,Stop 41 Bridge Rd - Eastern side,,-34.8059439388436, 138.650146635444,,,,
1005,,Stop 41A Liberman Rd - Eastern side,,-34.806417, 138.656498,,,,
1006,,Stop 58A Grenfell Rd - Southern side,,-34.80649, 138.70213,,,,
1007,,Stop 53 Ladywood Rd - Eastern side,,-34.8075007613374, 138.686052178986,,,,
1008,,Stop 55 Victoria Rd - Western side,,-34.80654, 138.5012,,,,
1009,,Stop 58 Haines Rd - Eastern side,,-34.80793, 138.73031,,,,
1010,,Stop 58 Haines Rd - Western side,,-34.80755, 138.73004,,,,
1011,,Stop 55 Hancock Rd - Western side,,-34.80898, 138.71764,,,,
1012,,Stop 55 Hancock Rd - Eastern side,,-34.8094140503631, 138.7179146826,,,,
1013,,Stop 40B Kesters Rd - Northern side,,-34.80708, 138.65003,,,,
1014,,Stop 55 Military Rd - Western side,,-34.80702, 138.49652,,,,
1015,,Stop 53 Ladywood Rd - Western side,,-34.8077696403373, 138.685949232123,,,,
1016,,Stop 40B Kesters Rd - Southern side,,-34.80766, 138.6506,,,,
1017,,Stop 55 Military Rd - Eastern side,,-34.80725, 138.4967,,,,
1018,,Stop 54 Cronulla Dr - Western side,,-34.8072671604442, 138.714710210224,,,,
1019,,Stop 53 The Golden Wy - North West side,,-34.80768, 138.67781,,,,
1020,,Stop 41 Bridge Rd - North West side,,-34.8058958386511, 138.649938342168,,,,
1021,,Stop 54 Cronulla Dr - Eastern side,,-34.80803, 138.71444,,,,
1022,,Stop 53 The Golden Wy - South East side,,-34.80804, 138.67777,,,,
1023,,Stop 57 Cottenham Rd - Northern side,,-34.80811, 138.72697,,,,
1024,,Stop 57 Cottenham Rd - Southern side,,-34.80821, 138.72793,,,,
1025,,Stop 56 Elizabeth St - Western side,,-34.80896, 138.72418,,,,
1026,,Stop 56 Elizabeth St - Eastern side,,-34.80892, 138.72436,,,,
1027,,Stop 54 Victoria Rd - Eastern side,,-34.80841, 138.5015,,,,
1028,,Stop 52 Ladywood Rd - Eastern side,,-34.8094448798979, 138.686198413958,,,,
1029,,Stop 54 Military Rd - Eastern side,,-34.80868, 138.49669,,,,
1030,,Stop 37 Main North Rd - North West side,,-34.8087579371382, 138.63146723676,,,,
1031,,Stop 48 Golden Grove Rd - Eastern side,,-34.80893, 138.69775,,,,
1032,,Stop 41C Nelson Rd - Western side,,-34.80909, 138.66008,,,,
1033,,Stop 54 Victoria Rd - Western side,,-34.8091070336822, 138.501171547761,,,,
1034,,Stop 48 Golden Grove Rd - Western side,,-34.80899, 138.69745,,,,
1035,,Stop 54 Military Rd - Western side,,-34.80925, 138.49648,,,,
1036,,Stop 40A Bridge Rd - Western side,,-34.8093384006856, 138.646814910309,,,,
1037,,Stop 41 Kesters Rd - North East side,,-34.80927, 138.65359,,,,
1038,,Stop 41 Kesters Rd - South West side,,-34.80947, 138.65349,,,,
1039,,Stop 40A Bridge Rd - Eastern side,,-34.80971, 138.64704,,,,
1040,,Stop 37 Main North Rd - South East side,,-34.8096602365718, 138.631219938124,,,,
1041,,Stop 53 Cronulla Dr - Eastern side,,-34.80988, 138.71352,,,,
1042,,Stop 53 Cronulla Dr - Western side,,-34.8097337372725, 138.713476956067,,,,
1043,,Stop 52 Ladywood Rd - Western side,,-34.8106677674455, 138.686160226165,,,,
1044,,Stop 54 Hancock Rd - Western side,,-34.8115471968954, 138.717834051285,,,,
1045,,Stop 55 Elizabeth St - Eastern side,,-34.811345, 138.724499,,,,
1046,,Stop 52 The Golden Wy - North West side,,-34.81045, 138.67581,,,,
1047,,Stop 55 Elizabeth St - Western side,,-34.81183, 138.72444,,,,
1048,,Stop 52 The Golden Wy - South East side,,-34.81075, 138.67588,,,,
1049,,Stop 51 Ladywood Rd - Eastern side,,-34.8124604775547, 138.686457256396,,,,
1050,,Stop 41A Kesters Rd - North East side,,-34.8110190398231, 138.656412265008,,,,
1051,,Stop 53 Murrell Rd - South West side,,-34.8106300253202, 138.660769445687,,,,
1052,,Stop 53 Murrell Rd - North East side,,-34.8105806406076, 138.660950906427,,,,
1054,,Stop 53 Victoria Rd - Western side,,-34.81139, 138.50116,,,,
1056,,Stop 54 Hancock Rd - Eastern side,,-34.8116467970965, 138.718073047093,,,,
1057,,Stop 55 Murrell Rd - Northern side,,-34.8115, 138.66487,,,,
1058,,Stop 55 Murrell Rd - South East side,,-34.8118713346072, 138.664984173744,,,,
1059,,Stop 54 Murrell Rd - North East side,,-34.8116641751549, 138.662960603781,,,,
1060,,Stop 51 Ladywood Rd - Western side,,-34.8121102690173, 138.686277343916,,,,
1061,,Stop 54 Murrell Rd - South West side,,-34.8117192937481, 138.662788765683,,,,
1062,,Stop 40 Williamson Rd - Southern side,,-34.8121, 138.64931,,,,
1063,,Stop 53 Strathfield Tce - Northern side,,-34.81209, 138.49535,,,,
1064,,Stop 53 Strathfield Tce - Southern side,,-34.81222, 138.49531,,,,
1065,,Stop 47 Golden Grove Rd - Western side,,-34.812111, 138.69502,,,,
1066,,Stop 40 Williamson Rd - Northern side,,-34.81215, 138.64978,,,,
1067,,Stop 47 Golden Grove Rd - Eastern side,,-34.81226, 138.69522,,,,
1069,,Stop 41B Kesters Rd - North East side,,-34.8122169004586, 138.659105623272,,,,
1070,,Stop 52 Cronulla Dr - North West side,,-34.812260420024, 138.711239794518,,,,
1071,,Stop 36 Main North Rd - North West side,,-34.81244, 138.62827,,,,
1072,,Stop 53 Hancock Rd - Western side,,-34.8138024687358, 138.717998450575,,,,
1073,,Stop 53 Hancock Rd - Eastern side,,-34.8140301947099, 138.718263545301,,,,
1074,,Stop 36 Main North Rd - South East side,,-34.8129, 138.62835,,,,
1075,,Stop 58 Murrell Rd - Northern side,,-34.8127752766837, 138.673052644999,,,,
1076,,Stop 51A Victoria Rd - Northern side,,-34.81556, 138.50105,,,,
1077,,Stop 57 Murrell Rd - Northern side,,-34.8128947861437, 138.67080168749,,,,
1078,,Stop 58 Murrell Rd - Southern side,,-34.81291, 138.67243,,,,
1079,,Stop 52 Cronulla Dr - South East side,,-34.8130227404861, 138.71087444555,,,,
1080,,Stop 57 Murrell Rd - Southern side,,-34.81303, 138.67004,,,,
1081,,Stop 40 Bridge Rd - Western side,,-34.8117730165926, 138.64464683079,,,,
1082,,Stop 54 Elizabeth St - Eastern side,,-34.8147, 138.7248,,,,
1083,,Stop 59 Kelly Rd - Western side,,-34.81435, 138.67359,,,,
1084,,Stop 40 Bridge Rd - Eastern side,,-34.8121187156266, 138.644630316248,,,,
1085,,Stop 52 Military Rd - Western side,,-34.81339, 138.4942,,,,
1086,,Stop 54 Elizabeth St - Western side,,-34.81507, 138.72472,,,,
1087,,Stop 39G Williamson Rd - Southern side,,-34.8135, 138.65195,,,,
1088,,Stop 52 Military Rd - Eastern side,,-34.81342, 138.49437,,,,
1089,,Stop 59 Kelly Rd - Eastern side,,-34.8146732422728, 138.673733817019,,,,
1090,,Stop 39G Williamson Rd - Northern side,,-34.81335, 138.65207,,,,
1091,,Stop 52 Nelson Rd - Eastern side,,-34.8142024612421, 138.660619020017,,,,
1092,,Stop 50 Ladywood Rd - Eastern side,,-34.8151000239667, 138.686629641691,,,,
1093,,Stop 51 Riverside Dr - Eastern side,,-34.8136790999809, 138.710343528657,,,,
1094,,Stop 51 Mcintyre Rd - Eastern side,,-34.81379, 138.67587,,,,
1095,,Stop 51 Mcintyre Rd - Western side,,-34.81391, 138.67558,,,,
1096,,Stop 34C Mawson Lakes Bvd - Southern side,,-34.81403, 138.62131,,,,
1097,,Stop 34C Mawson Lakes Bvd - Northern side,,-34.81409, 138.62206,,,,
1098,,Stop 51 Riverside Dr - Western side,,-34.8140003011792, 138.709977474757,,,,
1099,,Stop 52 Nelson Rd - Western side,,-34.8136563853356, 138.66035159918,,,,
1100,,Stop 50 Ladywood Rd - Western side,,-34.8150895040673, 138.686495651448,,,,
1101,,Stop 52 Victoria Rd - Eastern side,,-34.8126716041629, 138.501451843901,,,,
1102,,Stop 35 Main North Rd - North West side,,-34.8148, 138.62616,,,,
1103,,Stop 39F Williamson Rd - North East side,,-34.81498, 138.65352,,,,
1104,,Stop 51 Military Rd - Western side,,-34.81509, 138.49401,,,,
1105,,Stop 60 Kelly Rd - Western side,,-34.8160538534576, 138.673719841574,,,,
1106,,Stop 51B Miller Av - North East side,,-34.81509, 138.66002,,,,
1107,,Stop 50 Riverside Dr - North West side,,-34.81539, 138.70725,,,,
1108,,Stop 34D Mawson Lakes Bvd - North West side,,-34.81515, 138.62374,,,,
1109,,Stop 51B Miller Av - South West side,,-34.814894623821, 138.659538773352,,,,
1110,,Stop 51A Sleep Rd - Eastern side,,-34.8160492440965, 138.656728763018,,,,
1111,,Stop 50 Riverside Dr - South East side,,-34.815320835171, 138.707470888165,,,,
1112,,Stop 39F Williamson Rd - South West side,,-34.81535, 138.65358,,,,
1113,,Stop 52 Hancock Rd - Western side,,-34.8166258722217, 138.718262471594,,,,
1114,,Stop 51 Military Rd - Eastern side,,-34.81533, 138.49413,,,,
1115,,Stop 52 Victoria Rd - Western side,,-34.81287, 138.50112,,,,
1116,,Stop 34D Mawson Lakes Bvd - Southern side,,-34.8155, 138.62395,,,,
1117,,Stop 52 Hancock Rd - Eastern side,,-34.81716, 138.71847,,,,
1118,,Stop 60 Kelly Rd - Eastern side,,-34.8162429349633, 138.673843669596,,,,
1119,,Stop 35 Main North Rd - South East side,,-34.8159526603158, 138.625590096615,,,,
1120,,Stop 51A Sleep Rd - Western side,,-34.8159820731671, 138.656667912773,,,,
1121,,Stop 61 Kelly Rd - Western side,,-34.81717, 138.67381,,,,
1122,,Stop 39E Williamson Rd - North East side,,-34.816575, 138.655609,,,,
1123,,Stop 39E Williamson Rd - South West side,,-34.816618, 138.655481,,,,
1124,,Stop 53 Elizabeth St - Eastern side,,-34.81874, 138.72508,,,,
1125,,Stop 53 Elizabeth St - Western side,,-34.81823, 138.72498,,,,
1126,,Stop 38B Bridge Rd - Eastern side,,-34.8192, 138.640472,,,,
1127,,Stop 38B Bridge Rd - Western side,,-34.81902, 138.64029,,,,
1128,,Stop 49 Penny St - Western side,,-34.81684, 138.70529,,,,
1129,,Stop 51 Carnarvon Tce - South East side,,-34.81695, 138.49992,,,,
1130,,Stop 46 Golden Grove Rd - Western side,,-34.81713, 138.69448,,,,
1131,,Stop 49 Penny St - Eastern side,,-34.817, 138.70546,,,,
1132,,Stop 50 Mcintyre Rd - Eastern side,,-34.81691, 138.67708,,,,
1133,,Stop 46 Golden Grove Rd - Eastern side,,-34.81687, 138.69486,,,,
1134,,Stop 50 Mcintyre Rd - Western side,,-34.81706, 138.67674,,,,
1135,,Stop 51 Carnarvon Tce - North West side,,-34.81709, 138.49962,,,,
1136,,Stop 58 Milne Rd - Northern side,,-34.8171217366344, 138.692164365985,,,,
1137,,Stop 61 Kelly Rd - Eastern side,,-34.81776, 138.67401,,,,
1138,,Stop 58 Milne Rd - Southern side,,-34.817362, 138.691853,,,,
1139,,Stop 57 Milne Rd - Northern side,,-34.8175606898699, 138.68851722239,,,,
1140,,Stop 57 Milne Rd - Southern side,,-34.817669, 138.688869,,,,
1141,,Stop 56 Milne Rd - Northern side,,-34.81775, 138.68544,,,,
1142,,Stop 56 Milne Rd - Southern side,,-34.81794, 138.685007,,,,
1143,,Stop 33E Park Wy - Southern side,,-34.817916, 138.616866,,,,
1144,,Stop 50 Military Rd - Western side,,-34.81791, 138.49362,,,,
1145,,Stop 55 Milne Rd - Northern side,,-34.81787, 138.68155,,,,
1146,,Stop 50 Military Rd - Eastern side,,-34.81803, 138.49381,,,,
1147,,Stop 54 Milne Rd - Northern side,,-34.81805, 138.67844,,,,
1148,,Stop 55 Milne Rd - Southern side,,-34.818106, 138.681814,,,,
1149,,Stop 51 Hancock Rd - Western side,,-34.8196552107469, 138.718510170509,,,,
1150,,Stop 54 Milne Rd - Southern side,,-34.818263, 138.678136,,,,
1151,,Stop 53 Milne Rd - Northern side,,-34.81831, 138.67323,,,,
1152,,Stop 39C Milne Rd - Northern side,,-34.8184, 138.65203,,,,
1153,,Stop 53 Milne Rd - Southern side,,-34.81844, 138.67525,,,,
1154,,Stop 50 Milne Rd - Northern side,,-34.818415, 138.662831,,,,
1155,,Stop 39D Sleep Rd - North West side,,-34.8184969946143, 138.65441650158,,,,
1156,,Stop 39D Sleep Rd - South East side,,-34.8185254396284, 138.654515236583,,,,
1157,,Stop 51 Hancock Rd - Eastern side,,-34.81962, 138.71865,,,,
1158,,Stop 50 Carnarvon Tce - North West side,,-34.81855, 138.4977,,,,
1159,,Stop 52 Milne Rd - Northern side,,-34.81853, 138.669687,,,,
1160,,Stop 39C Milne Rd - Southern side,,-34.81841, 138.65186,,,,
1161,,Stop 50 Carnarvon Tce - South East side,,-34.81865, 138.49779,,,,
1162,,Stop 52 Milne Rd - Southern side,,-34.81859, 138.67089,,,,
1163,,Stop 51 Milne Rd - Northern side,,-34.81869, 138.66638,,,,
1164,,Stop 51 Milne Rd - Southern side,,-34.818816, 138.666775,,,,
1165,,Stop 62 Kelly Rd - Western side,,-34.8209, 138.67403,,,,
1166,,Stop 50 Milne Rd - Southern side,,-34.81893, 138.66412,,,,
1167,,Stop 34 Main North Rd - Western side,,-34.81895, 138.62242,,,,
1169,,Stop 62 Kelly Rd - Eastern side,,-34.8203463113563, 138.674126411892,,,,
1170,,Stop 48 Far View Cr - South East side,,-34.81925, 138.70516,,,,
1171,,Stop 48 Far View Cr - North West side,,-34.81922, 138.70484,,,,
1172,,Stop 50 Milne Rd - North East side,,-34.819127121026, 138.659264901928,,,,
1173,,Stop 50 Milne Rd - South West side,,-34.819206730629, 138.659250945989,,,,
1174,,Stop 51 Milne Rd - South West side,,-34.81935, 138.65665,,,,
1175,,Stop 51 Milne Rd - North East side,,-34.8192790183627, 138.656718482809,,,,
1176,,Stop 49 Nelson Rd - Eastern side,,-34.8200540866693, 138.661230175434,,,,
1178,,Stop 39B Robert Cr - Western side,,-34.8196066481951, 138.649993375277,,,,
1179,,Stop 49 Nelson Rd - Western side,,-34.8196962591767, 138.660937345568,,,,
1180,,Stop 34 Main North Rd - South East side,,-34.8197290803474, 138.622253338021,,,,
1181,,Stop 39B Robert Cr - Eastern side,,-34.8197521957052, 138.649976164307,,,,
1182,,Stop 49 Mcintyre Rd - Eastern side,,-34.81995, 138.67807,,,,
1183,,Stop 39A Lamington St - Western side,,-34.82002, 138.64889,,,,
1184,,Stop 49 Mcintyre Rd - Western side,,-34.82029, 138.67794,,,,
1185,,Stop 39A Lamington St - Eastern side,,-34.82018, 138.64889,,,,
1186,,Stop 47A Far View Cr - South West side,,-34.82034, 138.70381,,,,
1187,,Stop 49 Ladywood Rd - Eastern side,,-34.818415297892, 138.686913480147,,,,
1188,,Stop 38A Bridge Rd - Western side,,-34.8223820542641, 138.637315479154,,,,
1189,,Stop 38A Bridge Rd - Eastern side,,-34.8216055431679, 138.638313989481,,,,
1190,,Stop 47A Far View Cr - North East side,,-34.82054, 138.70403,,,,
1191,,Stop 49 Carnarvon Tce - South East side,,-34.82066, 138.49523,,,,
1192,,Stop 49 Ladywood Rd - Western side,,-34.8189955195695, 138.68681280365,,,,
1193,,Stop 52 North East Rd - South East side,,-34.820829, 138.724859,,,,
1194,,Stop 49 Carnarvon Tce - North West side,,-34.82073, 138.49485,,,,
1195,,Stop 51A North East Rd - Northern side,,-34.82071, 138.72646,,,,
1196,,Stop 52 North East Rd - North West side,,-34.8206208274276, 138.724766408346,,,,
1197,,Stop 51A North East Rd - Southern side,,-34.82085, 138.72698,,,,
1198,,Stop 51 North East Rd - Southern side,,-34.82097, 138.72135,,,,
1199,,Stop 51 North East Rd - Northern side,,-34.82081, 138.72049,,,,
1200,,Stop 33E Park Wy - Northern side,,-34.817715, 138.61675,,,,
1201,,Stop 50 North East Rd - Northern side,,-34.8209795289576, 138.717350968392,,,,
1202,,Stop 50 North East Rd - South East side,,-34.8211778782735, 138.717849056741,,,,
1203,,Stop 51B North East Rd - Northern side,,-34.82108, 138.729563,,,,
1204,,Stop 51B North East Rd - Southern side,,-34.82121, 138.72948,,,,
1205,,Stop 33B Mawson Lakes Bvd - Western side,,-34.82152, 138.6113,,,,
1206,,Stop 45 Golden Grove Rd - Eastern side,,-34.82121, 138.6952,,,,
1207,,Stop 49 North East Rd - North West side,,-34.82117, 138.71414,,,,
1208,,Stop 49 Military Rd - North West side,,-34.82129, 138.49229,,,,
1209,,Stop 49 North East Rd - South East side,,-34.82143, 138.7142,,,,
1210,,Stop 49 Military Rd - South East side,,-34.82155, 138.49234,,,,
1211,,Stop 50 Hancock Rd - Eastern side,,-34.8217441173762, 138.718824155765,,,,
1212,,Stop 45 Golden Grove Rd - Western side,,-34.82169, 138.69482,,,,
1213,,Stop 39 Lamington St - Eastern side,,-34.8218, 138.6474,,,,
1214,,Stop 63 Kelly Rd - Western side,,-34.8234938333311, 138.67424955663,,,,
1215,,Stop 39 Lamington St - Western side,,-34.82176, 138.64722,,,,
1216,,Stop 33A Main North Rd - Western side,,-34.821843, 138.61985,,,,
1217,,Stop 39A Kesters Rd - North East side,,-34.80267, 138.64291,,,,
1218,,Stop 50 Hancock Rd - Western side,,-34.82207, 138.7187,,,,
1219,,Stop 47 Hazel Gr - Southern side,,-34.821988, 138.7042,,,,
1220,,Stop 33A Main North Rd - South East side,,-34.8219504195547, 138.62023878379,,,,
1221,,Stop 39A Kesters Rd - South West side,,-34.80311, 138.64312,,,,
1222,,Stop 47 Arthur St - Western side,,-34.822138, 138.703884,,,,
1223,,Stop 63 Kelly Rd - Eastern side,,-34.8233836406553, 138.674382802552,,,,
1224,,Stop 48 Ladywood Rd - Eastern side,,-34.8205333305064, 138.687046695798,,,,
1225,,Stop 48 Ladywood Rd - Western side,,-34.821236998121, 138.686969831946,,,,
1226,,Stop 48 North East Rd - North West side,,-34.82254, 138.71122,,,,
1227,,Stop 33A Mawson Lakes Bvd - North East side,,-34.82298, 138.61294,,,,
1228,,Stop 33A Mawson Lakes Bvd - South West side,,-34.8233, 138.61313,,,,
1229,,Stop 31 Port Wakefield Rd - Eastern side,,-34.8227, 138.5984,,,,
1230,,Stop 48 Fletcher Rd - Western side,,-34.82302, 138.49466,,,,
1231,,Stop 31 Port Wakefield Rd - Western side,,-34.8227706347709, 138.598062499464,,,,
1232,,Stop 50 Perseverance Rd - North West side,,-34.82287, 138.72934,,,,
1234,,Stop 50 Perseverance Rd - South East side,,-34.82314, 138.72928,,,,
1235,,Stop 48 Mcintyre Rd - Western side,,-34.82334, 138.67893,,,,
1238,,Stop 48 Fletcher Rd - Eastern side,,-34.82355, 138.49495,,,,
1239,,Stop 48 Mcintyre Rd - Eastern side,,-34.82348, 138.67919,,,,
1240,,Stop 48 Nelson Rd - Western side,,-34.823564370877, 138.661280221921,,,,
1241,,Stop 46A Arthur St - Western side,,-34.823605, 138.704023,,,,
1242,,Stop 48 Nelson Rd - Eastern side,,-34.8236625679891, 138.661472336354,,,,
1243,,Stop 46A Arthur St - Eastern side,,-34.82366, 138.70415,,,,
1244,,School Bus Stop - Eastern side,,-34.82527, 138.63498,,,,
1245,,Stop 38C Denning Av - Eastern side,,-34.82388, 138.64715,,,,
1246,,Stop 48 North East Rd - South East side,,-34.8237998935891, 138.710212126313,,,,
1247,,Stop 38C Denning Av - Western side,,-34.82384, 138.64684,,,,
1248,,Stop 47 Ladywood Rd - Western side,,-34.8231796192441, 138.686063877472,,,,
1250,,Stop 33 Main North Rd - Western side,,-34.82403, 138.61782,,,,
1251,,Stop 47 Ladywood Rd - South East side,,-34.8231248626915, 138.686290773866,,,,
1252,,Stop 38A Sullivan Rd - South East side,,-34.82434, 138.64282,,,,
1253,,Stop 38A Sullivan Rd - North West side,,-34.82419, 138.6426,,,,
1254,,Stop 49 Hancock Rd - Eastern side,,-34.8243591044942, 138.719017996186,,,,
1255,,Stop 44 Golden Grove Rd - Eastern side,,-34.82439, 138.69427,,,,
1256,,Stop 37A Montague Rd - North West side,,-34.82412, 138.63378,,,,
1257,,Stop 38 Montague Rd - Southern side,,-34.82452, 138.62464,,,,
1258,,Stop 38 Montague Rd - North East side,,-34.82434, 138.62283,,,,
1259,,Stop 37 Montague Rd - North East side,,-34.82423, 138.62916,,,,
1260,,Stop 37A Montague Rd - South East side,,-34.82445, 138.63348,,,,
1262,,Stop 37 Montague Rd - South West side,,-34.824472, 138.628857,,,,
1263,,Stop 39 Montague Rd - South West side,,-34.824524, 138.620476,,,,
1264,,Stop 48 Military Rd - North West side,,-34.82457, 138.49046,,,,
1265,,Stop 39 Montague Rd - North East side,,-34.82438, 138.61967,,,,
1266,,Stop 44 Golden Grove Rd - Western side,,-34.824513, 138.693804,,,,
1267,,Stop 37C Montague Rd - Southern side,,-34.82507, 138.63746,,,,
1268,,Stop 38B Baloo St - Northern side,,-34.82465, 138.64585,,,,
1269,,Stop 48 Military Rd - South East side,,-34.8248, 138.49058,,,,
1270,,Stop 49 Perseverance Rd - South East side,,-34.824772, 138.727584,,,,
1271,,Stop 38B Baloo St - Southern side,,-34.82476, 138.64596,,,,
1272,,Stop 37C Montague Rd - Northern side,,-34.82459, 138.63659,,,,
1273,,Stop 49 Hancock Rd - Western side,,-34.8249918399848, 138.718923584175,,,,
1274,,Stop 49 Perseverance Rd - North West side,,-34.82481, 138.72715,,,,
1275,,Stop 64 Kelly Rd - Western side,,-34.82604, 138.67451,,,,
1276,,Stop 47A Nelson Rd - Western side,,-34.8251028950758, 138.661390390609,,,,
1277,,Stop 38 Sullivan Rd - Eastern side,,-34.825298, 138.64119,,,,
1278,,Stop 47A Nelson Rd - Eastern side,,-34.825358656157, 138.661630176859,,,,
1279,,Stop 37D Montague Rd - Northern side,,-34.82538, 138.63964,,,,
1281,,Stop 33 Main North Rd - South East side,,-34.8254688084773, 138.616999939117,,,,
1282,,Stop 46 Ladywood Rd - Eastern side,,-34.8259048638665, 138.685537600484,,,,
1283,,Stop 37D Montague Rd - Southern side,,-34.82568, 138.63951,,,,
1284,,Stop 64 Kelly Rd - Eastern side,,-34.827041513136, 138.674724102788,,,,
1285,,Stop 47 North East Rd - North West side,,-34.8253032185282, 138.70817048063,,,,
1286,,Stop 37 Muriel Dr - Eastern side,,-34.826328, 138.630853,,,,
1287,,Stop 47 Military Rd - North West side,,-34.82584, 138.4898,,,,
1288,,Stop 47 Military Rd - South East side,,-34.82603, 138.48992,,,,
1289,,Stop 47 Fletcher Rd - Eastern side,,-34.8263, 138.49557,,,,
1290,,Stop 46 Ladywood Rd - Western side,,-34.8257649673636, 138.685383031829,,,,
1291,,Stop 47 North East Rd - South East side,,-34.826212900769, 138.707585346621,,,,
1292,,Stop 37 Muriel Dr - Western side,,-34.82618, 138.63076,,,,
1293,,Stop 47 Fletcher Rd - Western side,,-34.82628, 138.49527,,,,
1294,,Stop 47 Mcintyre Rd - Western side,,-34.82639, 138.67949,,,,
1295,,Stop 47 Baldock Rd - Northern side,,-34.82651, 138.65851,,,,
1296,,Stop 46 Arthur St - Western side,,-34.82658, 138.70421,,,,
1297,,Stop 47 Baldock Rd - Southern side,,-34.82664, 138.65876,,,,
1298,,Stop 46A Baldock Rd - Northern side,,-34.82663, 138.65599,,,,
1299,,Stop 46 Arthur St - Eastern side,,-34.826538, 138.704399,,,,
1301,,Stop 47 Mcintyre Rd - Eastern side,,-34.82658, 138.67982,,,,
1302,,Stop 37E Montague Rd - Northern side,,-34.82667, 138.6439,,,,
1303,,Stop 46 Nelson Rd - Eastern side,,-34.8280414612795, 138.66179400133,,,,
1304,,Stop 37E Montague Rd - Southern side,,-34.82679, 138.64362,,,,
1305,,Stop 46A Baldock Rd - Southern side,,-34.82677, 138.65548,,,,
1306,,Stop 46 Fairfax Rd - Eastern side,,-34.8268, 138.65391,,,,
1307,,Stop 46 Fairfax Rd - Western side,,-34.82691, 138.65372,,,,
1308,,Stop 46 North East Rd - North West side,,-34.82701, 138.70497,,,,
1309,,Stop 36 Barakoola St - North East side,,-34.82727, 138.62618,,,,
1310,,Stop 65 Kelly Rd - Western side,,-34.82922, 138.67477,,,,
1311,,Stop 46 North East Rd - South East side,,-34.8273047722057, 138.704553905843,,,,
1312,,Stop 45A North East Rd - Northern side,,-34.8272, 138.7018,,,,
1313,,Stop 45A North East Rd - Southern side,,-34.8275081481322, 138.700962564407,,,,
1315,,Stop 45 North East Rd - Northern side,,-34.82737, 138.69854,,,,
1316,,Stop 45 North East Rd - Southern side,,-34.8276, 138.69892,,,,
1317,,Stop 36 Barakoola St - South West side,,-34.8277, 138.62649,,,,
1318,,Stop 46 Nelson Rd - Western side,,-34.8275475402773, 138.66160689618,,,,
1319,,Stop 45 Reservoir Rd - Eastern side,,-34.82997, 138.68784,,,,
1320,,Stop 44 North East Rd - Northern side,,-34.82751, 138.69578,,,,
1321,,Stop 45 Reservoir Rd - Western side,,-34.82932, 138.68759,,,,
1322,,Stop 44 North East Rd - Southern side,,-34.82777, 138.69602,,,,
1323,,Stop 32 Main North Rd - Western side,,-34.82769, 138.61469,,,,
1324,,Stop 35A Quinlivan Rd - Eastern side,,-34.82792, 138.62493,,,,
1325,,Stop 48 Hancock Rd - Western side,,-34.8280942608033, 138.719229382778,,,,
1326,,Stop 35A Quinlivan Rd - Western side,,-34.828284, 138.624366,,,,
1327,,Stop 48 Hancock Rd - Eastern side,,-34.828188, 138.719379,,,,
1328,,Stop 32 Main North Rd - Eastern side,,-34.8282972328224, 138.614740300651,,,,
1329,,Stop 26 Montague Rd - Northern side,,-34.82821, 138.68517,,,,
1331,,Stop 26 Montague Rd - Southern side,,-34.82832, 138.68521,,,,
1332,,Stop 65 Kelly Rd - Eastern side,,-34.82941, 138.67498,,,,
1335,,Stop 27 Montague Rd - Northern side,,-34.82835, 138.68122,,,,
1336,,Stop 43A Golden Grove Rd - Eastern side,,-34.82872, 138.69401,,,,
1337,,Stop 27 Montague Rd - South East side,,-34.82856, 138.68102,,,,
1338,,Stop 36A Muriel Dr - Eastern side,,-34.82861, 138.62939,,,,
1339,,Stop 36A Montague Rd - Northern side,,-34.82779, 138.64802,,,,
1340,,Stop 36A Montague Rd - Southern side,,-34.82808, 138.64843,,,,
1341,,Stop 29 Montague Rd - Northern side,,-34.8287763254606, 138.673962709877,,,,
1342,,Stop 43A Golden Grove Rd - Western side,,-34.8285404461956, 138.693705468752,,,,
1343,,Stop 29 Montague Rd - Southern side,,-34.828910620072, 138.673760213413,,,,
1344,,Stop 30 Port Wakefield Rd - Eastern side,,-34.82888, 138.59885,,,,
1345,,Stop 36A Barakoola St - North East side,,-34.82881, 138.62867,,,,
1346,,Stop 48 Perseverance Rd - South East side,,-34.82893, 138.72659,,,,
1349,,Stop 31 Montague Rd - Northern side,,-34.82915, 138.66766,,,,
1350,,Stop 46 Military Rd - South East side,,-34.82912, 138.48828,,,,
1351,,Stop 46 Military Rd - North West side,,-34.82927, 138.48795,,,,
1352,,Stop 31 Montague Rd - Southern side,,-34.82942, 138.66703,,,,
1353,,Stop 44 Roopena St - Eastern side,,-34.82931, 138.65131,,,,
1354,,Stop 48 Perseverance Rd - North West side,,-34.8292, 138.72646,,,,
1355,,Stop 32 Montague Rd - Northern side,,-34.82919, 138.66379,,,,
1356,,Stop 32 Scott St - Eastern side,,-34.82951, 138.6155,,,,
1357,,Stop 45 Nelson Rd - Eastern side,,-34.830509687357, 138.662045364479,,,,
1358,,Stop 33 Montague Rd - Northern side,,-34.82956, 138.66087,,,,
1359,,Stop 32 Montague Rd - Southern side,,-34.82964, 138.66465,,,,
1360,,Stop 30 Port Wakefield Rd - Western side,,-34.8294, 138.59849,,,,
1361,,Stop 34 Montague Rd - Northern side,,-34.82973, 138.65801,,,,
1362,,Stop 46 Mcintyre Rd - Western side,,-34.82966, 138.67994,,,,
1363,,Stop 40A Beovich Rd - Northern side,,-34.82978, 138.64132,,,,
1364,,Stop 32 Scott St - Western side,,-34.82943, 138.61534,,,,
1365,,Stop 35 Montague Rd - Northern side,,-34.829151, 138.653085,,,,
1366,,Stop 33 Montague Rd - Southern side,,-34.82972, 138.66078,,,,
1367,,Stop 40A Beovich Rd - Southern side,,-34.82982, 138.64107,,,,
1368,,Stop 35 Montague Rd - Southern side,,-34.8294, 138.65316,,,,
1369,,Stop 34 Montague Rd - Southern side,,-34.82988, 138.6576,,,,
1370,,Stop 46 Fletcher Rd - Western side,,-34.83009, 138.49598,,,,
1371,,Stop 46 Mcintyre Rd - Eastern side,,-34.8299, 138.68027,,,,
1372,,Stop 39 Winara Dr - North West side,,-34.829975, 138.637261,,,,
1373,,Stop 40 Winara Dr - Northern side,,-34.829969, 138.640061,,,,
1374,,Stop 40 Winara Dr - Southern side,,-34.83013, 138.63974,,,,
1375,,Stop 46 Fletcher Rd - Eastern side,,-34.8302, 138.49641,,,,
1376,,Stop 35A Walkleys Rd - Western side,,-34.83014, 138.64592,,,,
1377,,Stop 39 Winara Dr - South East side,,-34.8302, 138.63705,,,,
1378,,Stop 35 Quinlivan Rd - South East side,,-34.83028, 138.62283,,,,
1379,,Stop 45 Nelson Rd - Western side,,-34.8302725242628, 138.661792412934,,,,
1380,,Stop 66 Kelly Rd - Western side,,-34.8314210039257, 138.674947791769,,,,
1381,,Stop 35A Walkleys Rd - Eastern side,,-34.8303, 138.64614,,,,
1382,,Stop 37 Dulkara Rd - South Western side,,-34.83047, 138.63139,,,,
1383,,Stop 33 Pratt Av - Northern side,,-34.8304, 138.61834,,,,
1384,,Stop 35 Quinlivan Rd - North West side,,-34.83024, 138.62271,,,,
1385,,Stop 37 Dulkara Rd - North Eastern side,,-34.83044, 138.6316,,,,
1386,,Stop 36 Bridge Rd - Western side,,-34.8304612455101, 138.63006031315,,,,
1388,,Stop 36 Bridge Rd - Eastern side,,-34.8305164401291, 138.630238645724,,,,
1389,,Stop 41 Beovich Rd - Northern side,,-34.830644, 138.644125,,,,
1390,,Stop 41 Beovich Rd - Southern side,,-34.83076, 138.64419,,,,
1391,,Stop 66 Kelly Rd - Eastern side,,-34.8315613767229, 138.675121374366,,,,
1392,,Stop 47 Hancock Rd - Eastern side,,-34.8309631931202, 138.719596037927,,,,
1393,,Zone A Modbury Int ,,-34.831325964, 138.6943084,,,,
1394,,Stop 47 Hancock Rd - Western side,,-34.8309926737992, 138.7194479813,,,,
1395,,Zone H Modbury Int,,-34.8311102, 138.69444251,,,,
1396,,Stop 44A Roopena St - Eastern side,,-34.83138, 138.65046,,,,
1397,,Zone B Modbury Int ,,-34.831676026, 138.694388866,,,,
1398,,Zone G Modbury Int ,,-34.8314734747, 138.6944961548,,,,
1399,,Stop 33 Pratt Av - Southern side,,-34.83044, 138.61821,,,,
1400,,Stop 31 Main North Rd - Western side,,-34.83155, 138.61189,,,,
1401,,Stop 31 Main North Rd - South East side,,-34.8317017030993, 138.612234712591,,,,
1403,,Stop 45D Military Rd - North West side,,-34.83156, 138.48678,,,,
1405,,Stop 46 Smart Rd - Northern side,,-34.831772103005, 138.717424770201,,,,
1406,,Stop 31 Scott St - Western side,,-34.8318, 138.61349,,,,
1407,,Stop 38 Winara Dr - Western side,,-34.8319104867859, 138.634529817278,,,,
1408,,Stop 38 Winara Dr - Eastern side,,-34.8319915601671, 138.634613334349,,,,
1409,,Stop 46 Smart Rd - Southern side,,-34.832, 138.716649,,,,
1410,,Stop 45 Smart Rd - Northern side,,-34.8319687264831, 138.713650079857,,,,
1411,,Stop 45D Military Rd - South East side,,-34.83208, 138.48678,,,,
1412,,Stop 34 Pratt Av - Northern side,,-34.83209, 138.62151,,,,
1413,,Stop 34 Pratt Av - Southern side,,-34.832, 138.62097,,,,
1414,,Stop 35 Bridge Rd - Western side,,-34.83214, 138.62858,,,,
1415,,Zone F Modbury Int ,,-34.832017281, 138.694547117,,,,
1416,,Stop 45 Smart Rd - Southern side,,-34.8320882056196, 138.713850773513,,,,
1417,,Stop 31 Scott St - Eastern side,,-34.83224, 138.61339,,,,
1418,,Zone C Modbury Int ,,-34.8320767253, 138.694413006,,,,
1419,,Stop 44 Smart Rd - Northern side,,-34.8321561944658, 138.70999462872,,,,
1420,,Stop 44 Nelson Rd - Eastern side,,-34.83417, 138.66233,,,,
1421,,Stop 67 Kelly Rd - Western side,,-34.83317, 138.67508,,,,
1422,,Stop 45 Mcintyre Rd - Eastern side,,-34.83242, 138.68048,,,,
1423,,Stop 43E Smart Rd - Northern side,,-34.83237, 138.70614,,,,
1424,,Stop 29 Port Wakefield Rd - Western side,,-34.83254, 138.59876,,,,
1425,,Stop 43E Smart Rd - Southern side,,-34.8325116767693, 138.706144029011,,,,
1426,,Zone E Modbury Int,,-34.832281477, 138.6945739388,,,,
1427,,Stop 43D Smart Rd - Northern side,,-34.83256, 138.70317,,,,
1428,,Stop 43D Smart Rd - Southern side,,-34.8327197589429, 138.702778869088,,,,
1429,,Zone D Modbury Int,,-34.8325566806, 138.69435936,,,,
1430,,Stop 43 Roopena St - Western side,,-34.83268, 138.64945,,,,
1431,,Stop 67 Kelly Rd - Eastern side,,-34.8330972913439, 138.675235038079,,,,
1432,,Stop 43C Smart Rd - Northern side,,-34.8326585190901, 138.701068652346,,,,
1433,,Stop 45 Mcintyre Rd - Western side,,-34.8329, 138.68024,,,,
1434,,Stop 35 Bridge Rd - Eastern side,,-34.8327445402073, 138.62822738664,,,,
1435,,Stop 47 Perseverance Rd - Western side,,-34.83281, 138.72585,,,,
1436,,Stop 43C Smart Rd - Southern side,,-34.83283, 138.7008,,,,
1437,,Stop 43 Roopena St - Eastern side,,-34.83294, 138.64933,,,,
1438,,Stop 47 Perseverance Rd - Eastern side,,-34.83291, 138.72606,,,,
1439,,Stop 45 Fletcher Rd - Western side,,-34.83306, 138.49679,,,,
1440,,Stop 43B Smart Rd - Northern side,,-34.832900185743, 138.69611532867,,,,
1441,,Stop 42 Smart Rd - Northern side,,-34.83303, 138.69449,,,,
1442,,Stop 45 Fletcher Rd - Eastern side,,-34.83312, 138.49692,,,,
1443,,Stop 43B Smart Rd - Southern side,,-34.83311, 138.69594,,,,
1444,,Stop 35 Walkleys Rd - Eastern side,,-34.8332, 138.64575,,,,
1446,,Stop 35 Walkleys Rd - Western side,,-34.83325, 138.64552,,,,
1447,,Stop 29 Port Wakefield Rd - Eastern side,,-34.83318, 138.59913,,,,
1449,,Stop 42A Smart Rd - Northern side,,-34.833216, 138.690559,,,,
1450,,Stop 30 Main North Rd - Western side,,-34.83324, 138.6107,,,,
1452,,Stop 42A Smart Rd - Southern side,,-34.8334703650836, 138.690435648149,,,,
1454,,Stop 46H Hancock Rd - Eastern side,,-34.83354, 138.71981,,,,
1455,,Stop 43S Smart Rd - Northern side,,-34.8334694581702, 138.686494667142,,,,
1456,,Stop 45C Military Rd - North West side,,-34.83363, 138.48599,,,,
1457,,Stop 30 Main North Rd - Eastern side,,-34.8335625780541, 138.610890893756,,,,
1458,,Stop 46H Hancock Rd - Western side,,-34.83334, 138.71965,,,,
1459,,Stop 45C Military Rd - South East side,,-34.83362, 138.48618,,,,
1460,,Stop 43S Smart Rd - Southern side,,-34.83367, 138.68637,,,,
1461,,Stop 44 Wright Rd - Northern side,,-34.83374, 138.68208,,,,
1463,,Stop 44 Wright Rd - Southern side,,-34.8339412974974, 138.681623239453,,,,
1464,,Stop 43A Wright Rd - Northern side,,-34.83389, 138.67913,,,,
1465,,Stop 44 Nelson Rd - Western side,,-34.8339737168948, 138.662182420053,,,,
1466,,Stop 43A Wright Rd - Southern side,,-34.83406, 138.67915,,,,
1467,,Stop 34 Bridge Rd - Eastern side,,-34.8340635968792, 138.627141690482,,,,
1468,,Stop 42A Wright Rd - Northern side,,-34.83404, 138.67649,,,,
1469,,Stop 42A Wright Rd - Southern side,,-34.83417, 138.67655,,,,
1470,,Stop 41 Wright Rd - Northern side,,-34.83423, 138.67298,,,,
1471,,Stop 44B Hargrave St - Southern side,,-34.83438, 138.49082,,,,
1472,,Stop 41 Wright Rd - Southern side,,-34.834404, 138.672766,,,,
1473,,Stop 44B Hargrave St - Northern side,,-34.83431, 138.49106,,,,
1475,,Stop 42 Tolley Rd - Western side,,-34.83459, 138.70713,,,,
1476,,Stop 44C Hargrave St - Northern side,,-34.83462, 138.48864,,,,
1478,,Stop 42 Tolley Rd - Eastern side,,-34.8349277446608, 138.707301462851,,,,
1479,,Stop 43 Wright Rd - Southern side,,-34.83519, 138.65975,,,,
1480,,Stop 40 North East Rd - Western side,,-34.8349308009371, 138.68131312344,,,,
1481,,Stop 46 Perseverance Rd - Eastern side,,-34.83491, 138.72562,,,,
1482,,Stop 43 Wright Rd - Northern side,,-34.83505, 138.65981,,,,
1483,,Stop 46 Perseverance Rd - Western side,,-34.83492, 138.72547,,,,
1484,,Stop 40 North East Rd - Eastern side,,-34.83506, 138.68166,,,,
1485,,Stop 34 Bridge Rd - Western side,,-34.83511, 138.62601,,,,
1486,,Stop 40 Flockhart Av - South East side,,-34.836171, 138.672102,,,,
1487,,Stop 44C Woolnough Rd - Eastern side,,-34.8352, 138.48825,,,,
1488,,Stop 42 Wright Rd - Northern side,,-34.83518, 138.65736,,,,
1489,,Stop 42 Wright Rd - Southern side,,-34.83535, 138.65615,,,,
1490,,Stop 45B Military Rd - Eastern side,,-34.8355, 138.48551,,,,
1491,,Stop 45B Military Rd - North West side,,-34.83563, 138.48538,,,,
1492,,Stop 41 Rutherford St - South East side,,-34.8364644854348, 138.652507719838,,,,
1493,,Stop 40 Flockhart Av - Western side,,-34.836363, 138.671737,,,,
