stop_id,stop_code,stop_name,stop_desc,stop_lat,stop_lon,zone_id,stop_url,location_type,parent_station
1,,Stop 92 Alawoona Rd - North West side,,-34.66091, 138.70355,,http://www.adelaidemetro.com.au/stops/view/1,,
2,,Stop 92 Alawoona Rd - South East side,,-34.66114, 138.70346,,http://www.adelaidemetro.com.au/stops/view/2,,
3,,Stop 93 Alawoona Rd - North West side,,-34.66324, 138.70171,,http://www.adelaidemetro.com.au/stops/view/3,,
4,,Stop 93 Alawoona Rd - South East side,,-34.66366, 138.70166,,http://www.adelaidemetro.com.au/stops/view/4,,
5,,Stop 91 Carcoola Rd - North West side,,-34.6614370056008, 138.705493365841,,http://www.adelaidemetro.com.au/stops/view/5,,
6,,Stop 91 Carcoola Rd - South East side,,-34.66151, 138.70559,,http://www.adelaidemetro.com.au/stops/view/6,,
7,,Stop 90 Carcoola Rd - South East side,,-34.6641360554388, 138.704101967217,,http://www.adelaidemetro.com.au/stops/view/7,,
8,,Stop 90 Carcoola Rd - North West side,,-34.6642793681353, 138.703834169303,,http://www.adelaidemetro.com.au/stops/view/8,,
9,,Stop 94 Alawoona Rd - North West side,,-34.66635, 138.69789,,http://www.adelaidemetro.com.au/stops/view/9,,
10,,Stop 89 Carcoola Rd - North West side,,-34.6663451456967, 138.70281418814,,http://www.adelaidemetro.com.au/stops/view/10,,
11,,Stop 89 Carcoola Rd - South East side,,-34.6663, 138.70307,,http://www.adelaidemetro.com.au/stops/view/11,,
12,,Stop 88 Noora Cr - South East side,,-34.66734, 138.70077,,http://www.adelaidemetro.com.au/stops/view/12,,
13,,Stop 88 Noora Cr - North West side,,-34.6669868347755, 138.700790419366,,http://www.adelaidemetro.com.au/stops/view/13,,
14,,Stop 76 President Av - West side,,-34.6676153584776, 138.667939203326,,http://www.adelaidemetro.com.au/stops/view/14,,
15,,Stop 73 Old Port Wakefield Rd - East side,,-34.66772, 138.56094,,http://www.adelaidemetro.com.au/stops/view/15,,
16,,Stop 76 President Av - East side,,-34.66773, 138.668,,http://www.adelaidemetro.com.au/stops/view/16,,
17,,Stop 75 President Av - East side,,-34.669431590146, 138.666946476489,,http://www.adelaidemetro.com.au/stops/view/17,,
19,,Stop 87 Maltarra Rd - South East side,,-34.6684659296038, 138.701314331209,,http://www.adelaidemetro.com.au/stops/view/19,,
20,,Stop 75 President Av - West side,,-34.6701350810759, 138.666368794238,,http://www.adelaidemetro.com.au/stops/view/20,,
21,,Stop 72 Old Port Wakefield Rd - South West side,,-34.6706, 138.5617,,http://www.adelaidemetro.com.au/stops/view/21,,
22,,Stop 77 Curtis Rd - North East side,,-34.6691872101082, 138.673079620199,,http://www.adelaidemetro.com.au/stops/view/22,,
23,,Stop 77 Curtis Rd - South West side,,-34.66923, 138.67267,,http://www.adelaidemetro.com.au/stops/view/23,,
24,,Stop 87 Maltarra Rd - North West side,,-34.6686865135038, 138.701007990289,,http://www.adelaidemetro.com.au/stops/view/24,,
25,,Stop 78 Curtis Rd - North side,,-34.6702696402757, 138.675472228587,,http://www.adelaidemetro.com.au/stops/view/25,,
26,,Stop 78 Curtis Rd - South side,,-34.67019, 138.675,,http://www.adelaidemetro.com.au/stops/view/26,,
27,,Stop 74H President Av - East side,,-34.671818, 138.66693,,http://www.adelaidemetro.com.au/stops/view/27,,
28,,Stop 96 Alawoona Rd - South East side,,-34.672480192878, 138.695200968361,,http://www.adelaidemetro.com.au/stops/view/28,,
29,,Stop 78A Curtis Rd - North side,,-34.6710517209751, 138.677303747585,,http://www.adelaidemetro.com.au/stops/view/29,,
30,,Stop 78A Curtis Rd - South side,,-34.67108, 138.67706,,http://www.adelaidemetro.com.au/stops/view/30,,
31,,Stop 71 Old Port Wakefield Rd - East side,,-34.675248639843, 138.563327338503,,http://www.adelaidemetro.com.au/stops/view/31,,
32,,Stop 86 Maltarra Rd - South East side,,-34.6708523725428, 138.700267018916,,http://www.adelaidemetro.com.au/stops/view/32,,
33,,Stop 86 Maltarra Rd - North West side,,-34.6709095150467, 138.700077381251,,http://www.adelaidemetro.com.au/stops/view/33,,
34,,Stop 71 Old Port Wakefield Rd - South West side,,-34.6748280746903, 138.563009389142,,http://www.adelaidemetro.com.au/stops/view/34,,
35,,Stop 97 Myall Av - North East side,,-34.6750964503942, 138.694059063348,,http://www.adelaidemetro.com.au/stops/view/35,,
36,,Stop 85 Maltarra Rd - South East side,,-34.67307, 138.6989,,http://www.adelaidemetro.com.au/stops/view/36,,
37,,Stop 85 Maltarra Rd - North West side,,-34.67343, 138.6983,,http://www.adelaidemetro.com.au/stops/view/37,,
38,,Stop 78B Peachey Rd - West side,,-34.67375, 138.6779,,http://www.adelaidemetro.com.au/stops/view/38,,
39,,Stop 78B Peachey Rd - East side,,-34.6740248317118, 138.678112737422,,http://www.adelaidemetro.com.au/stops/view/39,,
40,,Stop 84 Maltarra Rd - South East side,,-34.6753047071171, 138.697408829863,,http://www.adelaidemetro.com.au/stops/view/40,,
41,,Stop 84 Maltarra Rd - North West side,,-34.6754314479618, 138.697176023295,,http://www.adelaidemetro.com.au/stops/view/41,,
42,,Stop 83 Maltarra Rd - South East side,,-34.6755889438042, 138.694947130554,,http://www.adelaidemetro.com.au/stops/view/42,,
43,,Stop 83 Maltarra Rd - North West side,,-34.6754163399317, 138.694987503501,,http://www.adelaidemetro.com.au/stops/view/43,,
47,,Stop 70 Old Port Wakefield Rd - North East side,,-34.6811640623665, 138.565240291879,,http://www.adelaidemetro.com.au/stops/view/47,,
49,,Stop 82 Mingari St - South East side,,-34.6772, 138.69504,,http://www.adelaidemetro.com.au/stops/view/49,,
50,,Stop 82 Mingari St - North West side,,-34.6768937003031, 138.694995693258,,http://www.adelaidemetro.com.au/stops/view/50,,
51,,Stop 70 Old Port Wakefield Rd - South West side,,-34.68145, 138.56511,,http://www.adelaidemetro.com.au/stops/view/51,,
52,,Stop 89 Craigmore Rd - North side,,-34.6808431537633, 138.700054503668,,http://www.adelaidemetro.com.au/stops/view/52,,
53,,Stop 79H Coventry Rd - South East side,,-34.6800051487318, 138.681300026312,,http://www.adelaidemetro.com.au/stops/view/53,,
55,,Stop 79H Coventry Rd - North West side,,-34.6800315694616, 138.681105568429,,http://www.adelaidemetro.com.au/stops/view/55,,
59,,Stop 80 Anderson Wk - North side,,-34.6796781452012, 138.683676405969,,http://www.adelaidemetro.com.au/stops/view/59,,
60,,Stop 81C Main North Rd - East side,,-34.6802945164008, 138.695675945018,,http://www.adelaidemetro.com.au/stops/view/60,,
61,,Zone A Smithfield Interchange,,-34.6817215302139, 138.687338249642,,http://www.adelaidemetro.com.au/stops/view/61,,
63,,Stop 81C Main North Rd - West side,,-34.68073, 138.69494,,http://www.adelaidemetro.com.au/stops/view/63,,
65,,Stop 88 Craigmore Rd - North side,,-34.6821256625326, 138.703076221273,,http://www.adelaidemetro.com.au/stops/view/65,,
66,,Zone B Smithfield Interchange,,-34.682129415849, 138.68727041059,,http://www.adelaidemetro.com.au/stops/view/66,,
70,,Stop 81A Anderson Wk - North side,,-34.6833769106336, 138.692214874369,,http://www.adelaidemetro.com.au/stops/view/70,,
72,,Stop 79J Coventry Rd - South East side,,-34.6829030286883, 138.67945638079,,http://www.adelaidemetro.com.au/stops/view/72,,
74,,Stop 81B Main North Rd - East side,,-34.6828213023123, 138.694096565891,,http://www.adelaidemetro.com.au/stops/view/74,,
75,,Stop 69 Old Port Wakefield Rd - East side,,-34.686189708295, 138.56700144436,,http://www.adelaidemetro.com.au/stops/view/75,,
76,,Stop 79J Coventry Rd - North West side,,-34.6830780297123, 138.679170387892,,http://www.adelaidemetro.com.au/stops/view/76,,
77,,Stop 69 Old Port Wakefield Rd - West side,,-34.6860981853233, 138.566874067988,,http://www.adelaidemetro.com.au/stops/view/77,,
79,,Stop 87 Craigmore Rd - North side,,-34.6838065903967, 138.706944714789,,http://www.adelaidemetro.com.au/stops/view/79,,
80,,Stop 80M Warooka Cr - South West side,,-34.6842691590774, 138.688502717564,,http://www.adelaidemetro.com.au/stops/view/80,,
81,,Stop 80M Warooka Cr - North East side,,-34.6843219980044, 138.688830641009,,http://www.adelaidemetro.com.au/stops/view/81,,
82,,Stop 89 Park Lake Bvd - North West side,,-34.68423, 138.70041,,http://www.adelaidemetro.com.au/stops/view/82,,
83,,Stop 76 Whitington Rd - North side,,-34.6855148015043, 138.675551304497,,http://www.adelaidemetro.com.au/stops/view/83,,
85,,Stop 76 Whitington Rd - South side,,-34.6856175686502, 138.675452984669,,http://www.adelaidemetro.com.au/stops/view/85,,
86,,Stop 86 Craigmore Rd - North side,,-34.6846601389113, 138.708895725381,,http://www.adelaidemetro.com.au/stops/view/86,,
87,,Stop 92 Park Lake Bvd - East side,,-34.69055, 138.69917,,http://www.adelaidemetro.com.au/stops/view/87,,
93,,Stop 85 Craigmore Rd - South side,,-34.6859723873499, 138.71167193726,,http://www.adelaidemetro.com.au/stops/view/93,,
95,,Stop 85 Craigmore Rd - North side,,-34.6859606674409, 138.711978967227,,http://www.adelaidemetro.com.au/stops/view/95,,
97,,Stop 74 Peachey Rd - East side,,-34.6872956395189, 138.670305551167,,http://www.adelaidemetro.com.au/stops/view/97,,
98,,Stop 74 Peachey Rd - West side,,-34.6872773000216, 138.669983606948,,http://www.adelaidemetro.com.au/stops/view/98,,
100,,Stop 91 Park Lake Bvd - East side,,-34.6877630320762, 138.698363696671,,http://www.adelaidemetro.com.au/stops/view/100,,
102,,Stop 78 Uley Rd - South West side,,-34.6897, 138.69261,,http://www.adelaidemetro.com.au/stops/view/102,,
104,,Stop 78 Uley Rd - North East side,,-34.6896652158516, 138.693010954385,,http://www.adelaidemetro.com.au/stops/view/104,,
106,,Stop 89 Park Lake Bvd - South East side,,-34.6837693368592, 138.701480291072,,http://www.adelaidemetro.com.au/stops/view/106,,
107,,Stop 84 Adams Rd - East side,,-34.6880939211872, 138.712190801564,,http://www.adelaidemetro.com.au/stops/view/107,,
108,,Stop 91 Park Lake Bvd - West side,,-34.68794, 138.69813,,http://www.adelaidemetro.com.au/stops/view/108,,
109,,Stop 73 Peachey Rd - South East side,,-34.6900227432392, 138.669488255583,,http://www.adelaidemetro.com.au/stops/view/109,,
110,,Stop 77 Hamblynn Rd - North West side,,-34.6913580552173, 138.693754131654,,http://www.adelaidemetro.com.au/stops/view/110,,
111,,Stop 77 Hamblynn Rd - South East side,,-34.6913627528871, 138.693925506724,,http://www.adelaidemetro.com.au/stops/view/111,,
112,,Stop 73 Peachey Rd - North West side,,-34.6898184263157, 138.669282662674,,http://www.adelaidemetro.com.au/stops/view/112,,
113,,Stop 68 Port Wakefield Rd - South West side,,-34.696397175505, 138.569929165493,,http://www.adelaidemetro.com.au/stops/view/113,,
114,,Stop 77 Adams Rd - East side,,-34.6914984097203, 138.710035758427,,http://www.adelaidemetro.com.au/stops/view/114,,
115,,Stop 76 Hamblynn Rd - North West side,,-34.6927035399476, 138.692911562512,,http://www.adelaidemetro.com.au/stops/view/115,,
116,,Stop 77 Adams Rd - West side,,-34.6913407695169, 138.709928910889,,http://www.adelaidemetro.com.au/stops/view/116,,
117,,Stop 77D Uley Rd - North East side,,-34.6926591531575, 138.699919447866,,http://www.adelaidemetro.com.au/stops/view/117,,
118,,Stop 76 Hamblynn Rd - South East side,,-34.6932630379495, 138.692743773628,,http://www.adelaidemetro.com.au/stops/view/118,,
119,,Stop 72 Peachey Rd - East side,,-34.6925382141167, 138.667888459978,,http://www.adelaidemetro.com.au/stops/view/119,,
120,,Stop 76F Adams Rd - East side,,-34.6938697853478, 138.708490069337,,http://www.adelaidemetro.com.au/stops/view/120,,
121,,Stop 72 Peachey Rd - West side,,-34.6923449639854, 138.667681393794,,http://www.adelaidemetro.com.au/stops/view/121,,
122,,Stop 68 Port Wakefield Rd - North East side,,-34.6950757112301, 138.569654843048,,http://www.adelaidemetro.com.au/stops/view/122,,
123,,Stop 76C Hanson Rd - South East side,,-34.695161, 138.700356,,http://www.adelaidemetro.com.au/stops/view/123,,
124,,Stop 75 Hamblynn Rd - North West side,,-34.6952425019774, 138.692041265886,,http://www.adelaidemetro.com.au/stops/view/124,,
125,,Stop 76F Adams Rd - West side,,-34.6938588087258, 138.708308465897,,http://www.adelaidemetro.com.au/stops/view/125,,
126,,Stop 75 Hamblynn Rd - North East side,,-34.6953758877381, 138.692257279893,,http://www.adelaidemetro.com.au/stops/view/126,,
127,,Stop 76C Hanson Rd - South West side,,-34.6954002455855, 138.700034230637,,http://www.adelaidemetro.com.au/stops/view/127,,
128,,Stop 71 Fordingbridge Rd - North side,,-34.6959327140968, 138.666065567206,,http://www.adelaidemetro.com.au/stops/view/128,,
129,,Stop 71 Fordingbridge Rd - South side,,-34.696, 138.66555,,http://www.adelaidemetro.com.au/stops/view/129,,
130,,Stop 79B Uley Rd - North side,,-34.69603, 138.70779,,http://www.adelaidemetro.com.au/stops/view/130,,
132,,Stop 74A Hamblynn Rd - South West side,,-34.6971493406141, 138.691964753118,,http://www.adelaidemetro.com.au/stops/view/132,,
133,,Stop 74A Hamblynn Rd - South East side,,-34.6971782856385, 138.692142113234,,http://www.adelaidemetro.com.au/stops/view/133,,
134,,Stop 70A Easton Av - West side,,-34.6957190261284, 138.662341716299,,http://www.adelaidemetro.com.au/stops/view/134,,
135,,Stop 76B Hanson Rd - South East side,,-34.696002532521, 138.699802036735,,http://www.adelaidemetro.com.au/stops/view/135,,
136,,Stop 70A Easton Av - East side,,-34.695961944923, 138.662345596287,,http://www.adelaidemetro.com.au/stops/view/136,,
137,,Stop 76B Hanson Rd - North West side,,-34.6961111890222, 138.699584018611,,http://www.adelaidemetro.com.au/stops/view/137,,
140,,Stop 72 Woodford Rd - North side,,-34.6989828584396, 138.682209055148,,http://www.adelaidemetro.com.au/stops/view/140,,
141,,Stop 79A Uley Rd - North side,,-34.69725, 138.7107,,http://www.adelaidemetro.com.au/stops/view/141,,
142,,Stop 72 Woodford Rd - South side,,-34.699041876851, 138.681986047166,,http://www.adelaidemetro.com.au/stops/view/142,,
143,,Stop 74 Hamblynn Rd - South East side,,-34.6990313157624, 138.691366468273,,http://www.adelaidemetro.com.au/stops/view/143,,
144,,Stop 74 Hamblynn Rd - North West side,,-34.69933, 138.69098,,http://www.adelaidemetro.com.au/stops/view/144,,
145,,Stop 73 Midway Rd - North side,,-34.7002081942627, 138.685019996653,,http://www.adelaidemetro.com.au/stops/view/145,,
146,,Stop 71 Woodford Rd - South East side,,-34.698532430676, 138.67904776014,,http://www.adelaidemetro.com.au/stops/view/146,,
147,,Stop 76A Hanson Rd - South West side,,-34.69865, 138.69801,,http://www.adelaidemetro.com.au/stops/view/147,,
148,,Stop 73 Midway Rd - South side,,-34.7002144496906, 138.68469114741,,http://www.adelaidemetro.com.au/stops/view/148,,
149,,Stop 76A Hanson Rd - South East side,,-34.6986444186079, 138.698154929371,,http://www.adelaidemetro.com.au/stops/view/149,,
150,,Stop 70 Easton Av - East side,,-34.6990834476192, 138.661201529543,,http://www.adelaidemetro.com.au/stops/view/150,,
151,,Stop 70 Easton Av - West side,,-34.69877, 138.66119,,http://www.adelaidemetro.com.au/stops/view/151,,
152,,Stop 71 Woodford Rd - North West side,,-34.6983910425496, 138.678984587557,,http://www.adelaidemetro.com.au/stops/view/152,,
153,,Stop 79 Blair Park Dr - East side,,-34.6995364731885, 138.710956336426,,http://www.adelaidemetro.com.au/stops/view/153,,
154,,Stop 79 Blair Park Dr - West side,,-34.69901, 138.71109,,http://www.adelaidemetro.com.au/stops/view/154,,
156,,Stop 73A Midway Rd - North side,,-34.7016001193669, 138.688278325408,,http://www.adelaidemetro.com.au/stops/view/156,,
157,,Stop 73A Midway Rd - South side,,-34.7016908668602, 138.688083606285,,http://www.adelaidemetro.com.au/stops/view/157,,
158,,Stop 76 Hanson Rd - North West side,,-34.7005748839357, 138.696464952953,,http://www.adelaidemetro.com.au/stops/view/158,,
159,,Stop 76 Hanson Rd - South East side,,-34.70083, 138.69633,,http://www.adelaidemetro.com.au/stops/view/159,,
160,,Stop 68 Peachey Rd - West side,,-34.7036290347398, 138.663550824573,,http://www.adelaidemetro.com.au/stops/view/160,,
161,,Stop 69  Womma Rd - North side,,-34.7005182729861, 138.663470269018,,http://www.adelaidemetro.com.au/stops/view/161,,
162,,Stop 70 Woodford Rd - South East side,,-34.7011021597347, 138.676967445545,,http://www.adelaidemetro.com.au/stops/view/162,,
163,,Stop 73 Midway Rd - South West side,,-34.7025664298546, 138.690026637119,,http://www.adelaidemetro.com.au/stops/view/163,,
164,,Stop 73 Midway Rd - North East side,,-34.7025205050494, 138.690226852374,,http://www.adelaidemetro.com.au/stops/view/164,,
165,,Stop 70 Woodford Rd - North West side,,-34.7016386641485, 138.67638604453,,http://www.adelaidemetro.com.au/stops/view/165,,
166,,Stop 78 Blair Park Dr - East side,,-34.7016426462459, 138.710007001775,,http://www.adelaidemetro.com.au/stops/view/166,,
167,,Stop 75 Campbell Rd - North East side,,-34.7025670988431, 138.695651955497,,http://www.adelaidemetro.com.au/stops/view/167,,
168,,Stop 75 Campbell Rd - South West side,,-34.702431538947, 138.695268802095,,http://www.adelaidemetro.com.au/stops/view/168,,
169,,Stop 78 Blair Park Dr - West side,,-34.7020968726788, 138.709787170679,,http://www.adelaidemetro.com.au/stops/view/169,,
170,,Stop 74 Campbell Rd - North East side,,-34.70385, 138.69701,,http://www.adelaidemetro.com.au/stops/view/170,,
171,,Stop 72 Midway Rd - East side,,-34.7050026504112, 138.691512236197,,http://www.adelaidemetro.com.au/stops/view/171,,
172,,Stop 72 Midway Rd - West side,,-34.705001315956, 138.6913294235,,http://www.adelaidemetro.com.au/stops/view/172,,
173,,Stop 69 Woodford Rd - West side,,-34.7034900453873, 138.675229350945,,http://www.adelaidemetro.com.au/stops/view/173,,
174,,Stop 74 Campbell Rd - South West side,,-34.7042562762704, 138.697189076254,,http://www.adelaidemetro.com.au/stops/view/174,,
175,,Stop 69 Woodford Rd - East side,,-34.7043765996229, 138.674876848188,,http://www.adelaidemetro.com.au/stops/view/175,,
176,,Stop 77 Blair Park Dr - South East side,,-34.70394, 138.70911,,http://www.adelaidemetro.com.au/stops/view/176,,
177,,Stop 69 Womma Rd - South West side,,-34.7007469212825, 138.663346934559,,http://www.adelaidemetro.com.au/stops/view/177,,
178,,Stop 68 Peachey Rd - North East side,,-34.7045, 138.66371,,http://www.adelaidemetro.com.au/stops/view/178,,
179,,Stop 66 Port Wakefield Rd - South West side,,-34.7122397296741, 138.575455163314,,http://www.adelaidemetro.com.au/stops/view/179,,
180,,Stop 77 Blair Park Dr - West side,,-34.7045483461099, 138.708315536137,,http://www.adelaidemetro.com.au/stops/view/180,,
181,,Stop 73A Campbell Rd - South West side,,-34.7060990755081, 138.697725602219,,http://www.adelaidemetro.com.au/stops/view/181,,
182,,Stop 72 Yorktown Rd - North West side,,-34.7071858988508, 138.69411429129,,http://www.adelaidemetro.com.au/stops/view/182,,
183,,Stop 71 Yorktown Rd - North side,,-34.70706095254, 138.689991235894,,http://www.adelaidemetro.com.au/stops/view/183,,
184,,Stop 70 Yorktown Rd - North side,,-34.7070560560357, 138.687196678365,,http://www.adelaidemetro.com.au/stops/view/184,,
185,,Stop 73A Campbell Rd - North East side,,-34.7060381178877, 138.697866067618,,http://www.adelaidemetro.com.au/stops/view/185,,
186,,Stop 71 Yorktown Rd - South side,,-34.7073367550304, 138.690295705006,,http://www.adelaidemetro.com.au/stops/view/186,,
187,,Stop 72 Yorktown Rd - South East side,,-34.7073884151041, 138.693697251285,,http://www.adelaidemetro.com.au/stops/view/187,,
188,,Stop 70 Yorktown Rd - South side,,-34.7073477689825, 138.687226223183,,http://www.adelaidemetro.com.au/stops/view/188,,
189,,Stop 66 Port Wakefield Rd - North East side,,-34.7113308367794, 138.575534443969,,http://www.adelaidemetro.com.au/stops/view/189,,
190,,Stop 73 Yorktown Rd - North West side,,-34.70748, 138.69698,,http://www.adelaidemetro.com.au/stops/view/190,,
191,,Stop 73 Yorktown Rd - South East side,,-34.7076383682418, 138.696828195965,,http://www.adelaidemetro.com.au/stops/view/191,,
192,,Stop 68 Woodford Rd - East side,,-34.70642, 138.67397,,http://www.adelaidemetro.com.au/stops/view/192,,
193,,Stop 69 Yorktown Rd - North West side,,-34.70782, 138.68529,,http://www.adelaidemetro.com.au/stops/view/193,,
194,,Stop 76 Blair Park Dr - West side,,-34.7072295464986, 138.707327971307,,http://www.adelaidemetro.com.au/stops/view/194,,
195,,Stop 69 Yorktown Rd - South East side,,-34.7080173505181, 138.685514031837,,http://www.adelaidemetro.com.au/stops/view/195,,
196,,Stop 76 Blair Park Dr - East side,,-34.7071065241402, 138.707465836262,,http://www.adelaidemetro.com.au/stops/view/196,,
197,,Stop 68 Woodford Rd - West side,,-34.70628, 138.67371,,http://www.adelaidemetro.com.au/stops/view/197,,
198,,Stop 75 Turner Dr - East side,,-34.70866, 138.70482,,http://www.adelaidemetro.com.au/stops/view/198,,
199,,Stop 68 Yorktown Rd - East side,,-34.7100755982673, 138.684091011714,,http://www.adelaidemetro.com.au/stops/view/199,,
200,,Stop 75 Turner Dr - West side,,-34.70873, 138.7047,,http://www.adelaidemetro.com.au/stops/view/200,,
201,,Stop 68 Yorktown Rd - West side,,-34.71028, 138.68358,,http://www.adelaidemetro.com.au/stops/view/201,,
202,,Stop 67 Peachey Rd - North East side,,-34.7073, 138.66305,,http://www.adelaidemetro.com.au/stops/view/202,,
203,,Stop 67 Peachey Rd - South West side,,-34.70723, 138.66273,,http://www.adelaidemetro.com.au/stops/view/203,,
204,,Stop 67 Woodford Rd - South East side,,-34.70892, 138.6733,,http://www.adelaidemetro.com.au/stops/view/204,,
205,,Stop 67 Woodford Rd - North West side,,-34.709892587695, 138.672486942172,,http://www.adelaidemetro.com.au/stops/view/205,,
206,,Stop 67 Yorktown Rd - West side,,-34.7119219999854, 138.682565167113,,http://www.adelaidemetro.com.au/stops/view/206,,
207,,Stop 70 Seaborough Rd - North side,,-34.71299, 138.69289,,http://www.adelaidemetro.com.au/stops/view/207,,
208,,Stop 74 Turner Dr - South East side,,-34.71163, 138.70331,,http://www.adelaidemetro.com.au/stops/view/208,,
209,,Stop 73 Turner Dr - North side,,-34.71238, 138.69954,,http://www.adelaidemetro.com.au/stops/view/209,,
210,,Stop 74 Turner Dr - North West side,,-34.71146, 138.70312,,http://www.adelaidemetro.com.au/stops/view/210,,
211,,Stop 73 Turner Dr - South side,,-34.71247, 138.70006,,http://www.adelaidemetro.com.au/stops/view/211,,
212,,Stop 70 Seaborough Rd - South side,,-34.71306, 138.69245,,http://www.adelaidemetro.com.au/stops/view/212,,
213,,Stop 67 Yorktown Rd - East side,,-34.71267, 138.68258,,http://www.adelaidemetro.com.au/stops/view/213,,
214,,Stop 69 Midway Rd - West side,,-34.71281, 138.689,,http://www.adelaidemetro.com.au/stops/view/214,,
215,,Stop 69 Midway Rd - East side,,-34.71291, 138.68918,,http://www.adelaidemetro.com.au/stops/view/215,,
216,,Stop 72 Turner Dr - South side,,-34.71233, 138.69746,,http://www.adelaidemetro.com.au/stops/view/216,,
217,,Stop 71 Seaborough Rd - North side,,-34.7137, 138.69488,,http://www.adelaidemetro.com.au/stops/view/217,,
218,,Stop 71 Seaborough Rd - South side,,-34.71366, 138.69457,,http://www.adelaidemetro.com.au/stops/view/218,,
219,,Stop 72 Turner Dr - North West side,,-34.71265, 138.69644,,http://www.adelaidemetro.com.au/stops/view/219,,
220,,Stop 66 Woodford Rd - North West side,,-34.7120714087874, 138.671103880772,,http://www.adelaidemetro.com.au/stops/view/220,,
221,,Stop 66 Yorktown Rd - West side,,-34.71471, 138.68128,,http://www.adelaidemetro.com.au/stops/view/221,,
222,,Stop 66 Yorktown Rd - East side,,-34.7148013717875, 138.681586537033,,http://www.adelaidemetro.com.au/stops/view/222,,
223,,Stop 67 Shillabeer Rd - North side,,-34.71554, 138.6841,,http://www.adelaidemetro.com.au/stops/view/223,,
224,,Stop 67 Shillabeer Rd - South side,,-34.71562, 138.68396,,http://www.adelaidemetro.com.au/stops/view/224,,
225,,Stop 65C Ifould Rd - South side,,-34.71541, 138.67945,,http://www.adelaidemetro.com.au/stops/view/225,,
226,,Stop 65 Port Wakefield Rd - South West side,,-34.72031, 138.57817,,http://www.adelaidemetro.com.au/stops/view/226,,
227,,Stop 65C Ifould Rd - North side,,-34.71529, 138.67916,,http://www.adelaidemetro.com.au/stops/view/227,,
228,,Stop 68 Midway Rd - West side,,-34.71632, 138.68682,,http://www.adelaidemetro.com.au/stops/view/228,,
229,,Stop 68 Midway Rd - East side,,-34.71652, 138.68679,,http://www.adelaidemetro.com.au/stops/view/229,,
230,,Zone D Elizabeth City Centre - North West side,,-34.716794, 138.667855,,http://www.adelaidemetro.com.au/stops/view/230,,
231,,Zone A Elizabeth City Centre - North West side,,-34.71669, 138.66935,,http://www.adelaidemetro.com.au/stops/view/231,,
232,,Zone B Elizabeth City Centre - North West side,,-34.716741533, 138.66906747,,http://www.adelaidemetro.com.au/stops/view/232,,
233,,Zone C Elizabeth City Centre - North West side,,-34.71682, 138.66838,,http://www.adelaidemetro.com.au/stops/view/233,,
234,,Stop 65 Port Wakefield Rd - North East side,,-34.72045, 138.57865,,http://www.adelaidemetro.com.au/stops/view/234,,
235,,Zone E Elizabeth City Centre - South side,,-34.71692, 138.66894,,http://www.adelaidemetro.com.au/stops/view/235,,
236,,Zone A Elizabeth Interchange,,-34.717058, 138.66515,,http://www.adelaidemetro.com.au/stops/view/236,,
239,,Zone B Elizabeth Interchange,,-34.71744, 138.66487,,http://www.adelaidemetro.com.au/stops/view/239,,
240,,Zone C Elizabeth Interchange,,-34.717184, 138.665201,,http://www.adelaidemetro.com.au/stops/view/240,,
241,,Stop 65 Yorktown Rd - North West side,,-34.718, 138.67861,,http://www.adelaidemetro.com.au/stops/view/241,,
242,,Zone D Elizabeth Interchange,,-34.717492, 138.66504,,http://www.adelaidemetro.com.au/stops/view/242,,
243,,Stop 65 Yorktown Rd - South East side,,-34.7182638825597, 138.678658498331,,http://www.adelaidemetro.com.au/stops/view/243,,
244,,Stop 64A Yorktown Rd - North side,,-34.71902, 138.67533,,http://www.adelaidemetro.com.au/stops/view/244,,
245,,Stop 64B Playford Bvd - East side,,-34.718559, 138.671167,,http://www.adelaidemetro.com.au/stops/view/245,,
246,,Stop 64B Playford Bvd - West side,,-34.71931, 138.67114,,http://www.adelaidemetro.com.au/stops/view/246,,
247,,Stop 64 Kinkaid Rd - North East side,,-34.71964, 138.67942,,http://www.adelaidemetro.com.au/stops/view/247,,
248,,Stop 64 Kinkaid Rd - South West side,,-34.71978, 138.67942,,http://www.adelaidemetro.com.au/stops/view/248,,
250,,Stop 63 Kinkaid Rd - North side,,-34.72101, 138.68261,,http://www.adelaidemetro.com.au/stops/view/250,,
251,,Stop 63 Kinkaid Rd - South West side,,-34.72107, 138.6825,,http://www.adelaidemetro.com.au/stops/view/251,,
252,,Stop 63 Philip Hwy - West side,,-34.721078, 138.669396,,http://www.adelaidemetro.com.au/stops/view/252,,
253,,Stop 63 Philip Hwy - East side,,-34.7213955882407, 138.669665060659,,http://www.adelaidemetro.com.au/stops/view/253,,
254,,Stop 62 Midway Rd - West side,,-34.72218, 138.68304,,http://www.adelaidemetro.com.au/stops/view/254,,
255,,Stop 62 Midway Rd - East side,,-34.722548, 138.683027,,http://www.adelaidemetro.com.au/stops/view/255,,
257,,Stop 64 Port Wakefield Rd - South West side,,-34.72705, 138.58052,,http://www.adelaidemetro.com.au/stops/view/257,,
258,,Stop 62 Philip Hwy - South East side,,-34.72341, 138.66822,,http://www.adelaidemetro.com.au/stops/view/258,,
260,,Stop 62 Philip Hwy - North West side,,-34.723921678835, 138.667635369708,,http://www.adelaidemetro.com.au/stops/view/260,,
261,,Stop 64 Port Wakefield Rd - North East side,,-34.72654, 138.58075,,http://www.adelaidemetro.com.au/stops/view/261,,
262,,Stop 61 Midway Rd - North West side,,-34.72484, 138.68057,,http://www.adelaidemetro.com.au/stops/view/262,,
265,,Stop 61 Midway Rd - South East side,,-34.72543, 138.68031,,http://www.adelaidemetro.com.au/stops/view/265,,
266,,Stop 60 Midway Rd - West side,,-34.72623, 138.67904,,http://www.adelaidemetro.com.au/stops/view/266,,
267,,Stop 60 Midway Rd - East side,,-34.72664, 138.67929,,http://www.adelaidemetro.com.au/stops/view/267,,
268,,Stop 61 Philip Hwy - South East side,,-34.7267506274417, 138.666138341151,,http://www.adelaidemetro.com.au/stops/view/268,,
269,,Stop 61 Philip Hwy - North West side,,-34.72697, 138.66574,,http://www.adelaidemetro.com.au/stops/view/269,,
272,,Stop 59 Midway Rd - North West side,,-34.72792, 138.6776,,http://www.adelaidemetro.com.au/stops/view/272,,
273,,Stop 59 Midway Rd - South East side,,-34.728781, 138.67645,,http://www.adelaidemetro.com.au/stops/view/273,,
274,,Stop 60 Philip Hwy - South East side,,-34.7296610116098, 138.664288034225,,http://www.adelaidemetro.com.au/stops/view/274,,
275,,Stop 60 Philip Hwy - North West side,,-34.7296196371151, 138.664066984873,,http://www.adelaidemetro.com.au/stops/view/275,,
277,,Stop 58A Fairfield Rd - North West side,,-34.72952, 138.67382,,http://www.adelaidemetro.com.au/stops/view/277,,
278,,Stop 58A Fairfield Rd - South East side,,-34.72984, 138.67387,,http://www.adelaidemetro.com.au/stops/view/278,,
280,,Stop 58 Main North Rd - West side,,-34.732553, 138.675407,,http://www.adelaidemetro.com.au/stops/view/280,,
281,,Stop 58 Main North Rd - East side,,-34.7318227954702, 138.675867150611,,http://www.adelaidemetro.com.au/stops/view/281,,
282,,Stop 63 Waterloo Corner Rd - North side,,-34.732242, 138.5904,,http://www.adelaidemetro.com.au/stops/view/282,,
283,,Stop 59 Philip Hwy - North West side,,-34.7325364857286, 138.662086790654,,http://www.adelaidemetro.com.au/stops/view/283,,
285,,Stop 59 Philip Hwy - South East side,,-34.7330463952563, 138.662246187579,,http://www.adelaidemetro.com.au/stops/view/285,,
287,,Stop 58 Fairfield Rd - South East side,,-34.73161, 138.67268,,http://www.adelaidemetro.com.au/stops/view/287,,
288,,Stop 58 Fairfield Rd - North West side,,-34.73187, 138.6724,,http://www.adelaidemetro.com.au/stops/view/288,,
289,,Stop 63 Waterloo Corner Rd - South East side,,-34.734173, 138.59525,,http://www.adelaidemetro.com.au/stops/view/289,,
290,,Stop 57 Main North Rd - East side,,-34.7342441598212, 138.67600223634,,http://www.adelaidemetro.com.au/stops/view/290,,
291,,Stop 57 Main North Rd - West side,,-34.7347, 138.67549,,http://www.adelaidemetro.com.au/stops/view/291,,
292,,Stop 58A Blackburn Rd - North West side,,-34.7341, 138.68196,,http://www.adelaidemetro.com.au/stops/view/292,,
293,,Stop 65 Bolivar Rd - North West side,,-34.7355667945138, 138.617756190201,,http://www.adelaidemetro.com.au/stops/view/293,,
294,,Stop 58A Blackburn Rd - South East side,,-34.73414, 138.68212,,http://www.adelaidemetro.com.au/stops/view/294,,
295,,Stop 58 Philip Hwy - North West side,,-34.73576, 138.660191,,http://www.adelaidemetro.com.au/stops/view/295,,
296,,Stop 65 Bolivar Rd - South East side,,-34.7356937015453, 138.617799050963,,http://www.adelaidemetro.com.au/stops/view/296,,
297,,Stop 58 Philip Hwy - South East side,,-34.73614, 138.66015,,http://www.adelaidemetro.com.au/stops/view/297,,
298,,Stop 57B burgate Rd - West side,,-34.7357735068543, 138.670447916527,,http://www.adelaidemetro.com.au/stops/view/298,,
299,,Stop 57B Burgate St - East side,,-34.7358902584164, 138.670719045261,,http://www.adelaidemetro.com.au/stops/view/299,,
300,,Stop 66 Bolivar Rd - North West side,,-34.7375668079943, 138.615956924251,,http://www.adelaidemetro.com.au/stops/view/300,,
301,,Stop 66 Bolivar Rd - South East side,,-34.7379427276165, 138.615820954346,,http://www.adelaidemetro.com.au/stops/view/301,,
302,,Stop 64 Diment Rd - North East side,,-34.7362, 138.62025,,http://www.adelaidemetro.com.au/stops/view/302,,
303,,Stop 64 Diment Rd - South West side,,-34.7365, 138.62058,,http://www.adelaidemetro.com.au/stops/view/303,,
304,,Stop 58 Blackburn Rd - South East side,,-34.73661, 138.68055,,http://www.adelaidemetro.com.au/stops/view/304,,
305,,Stop 58 Blackburn Rd - North West side,,-34.73661, 138.6804,,http://www.adelaidemetro.com.au/stops/view/305,,
307,,Stop 56A Main North Rd - East side,,-34.73856, 138.67629,,http://www.adelaidemetro.com.au/stops/view/307,,
308,,Stop 56A Main North Rd - West side,,-34.7385568547453, 138.675761663722,,http://www.adelaidemetro.com.au/stops/view/308,,
309,,Stop 57 Hogarth Rd - North side,,-34.73853, 138.66008,,http://www.adelaidemetro.com.au/stops/view/309,,
310,,Stop 57 Hogarth Rd - South side,,-34.73873, 138.66024,,http://www.adelaidemetro.com.au/stops/view/310,,
311,,Stop 61 Waterloo Corner Rd - North East side,,-34.738062, 138.601976,,http://www.adelaidemetro.com.au/stops/view/311,,
313,,Stop 57A Haydown Rd - South East side,,-34.7378165772683, 138.670775972405,,http://www.adelaidemetro.com.au/stops/view/313,,
314,,Stop 57A Haydown Rd - North West side,,-34.73769, 138.67066,,http://www.adelaidemetro.com.au/stops/view/314,,
315,,Stop 61 Waterloo Corner Rd - South West side,,-34.738164, 138.601864,,http://www.adelaidemetro.com.au/stops/view/315,,
316,,Stop 63A Diment Rd - North East side,,-34.73825, 138.62373,,http://www.adelaidemetro.com.au/stops/view/316,,
317,,Stop 63A Diment Rd - South West side,,-34.73813, 138.62322,,http://www.adelaidemetro.com.au/stops/view/317,,
318,,Stop 67 Bolivar Rd - North West side,,-34.7394813151053, 138.614235688441,,http://www.adelaidemetro.com.au/stops/view/318,,
319,,Stop 60 Waterloo Corner Rd - North East side,,-34.740321, 138.605613,,http://www.adelaidemetro.com.au/stops/view/319,,
320,,Stop 56A Hogarth Rd - North side,,-34.73959, 138.66249,,http://www.adelaidemetro.com.au/stops/view/320,,
321,,Stop 67 Bolivar Rd - South East side,,-34.739643, 138.614366,,http://www.adelaidemetro.com.au/stops/view/321,,
322,,Stop 56A Hogarth Rd - South side,,-34.73971, 138.66248,,http://www.adelaidemetro.com.au/stops/view/322,,
323,,Stop 56 Hogarth Rd - North side,,-34.74035, 138.66432,,http://www.adelaidemetro.com.au/stops/view/323,,
324,,Stop 57 Bogan Rd - South side,,-34.73914, 138.67941,,http://www.adelaidemetro.com.au/stops/view/324,,
325,,Stop 56 Main North Rd - West side,,-34.7406265997423, 138.675852769924,,http://www.adelaidemetro.com.au/stops/view/325,,
326,,Stop 57 Bogan Rd - North side,,-34.73906, 138.67949,,http://www.adelaidemetro.com.au/stops/view/326,,
327,,Stop 62A Diment Rd - South West side,,-34.740186, 138.626465,,http://www.adelaidemetro.com.au/stops/view/327,,
328,,Stop 62A Diment Rd - North East side,,-34.74014, 138.62679,,http://www.adelaidemetro.com.au/stops/view/328,,
329,,Stop 68 Bolivar Rd - South East side,,-34.7425365417721, 138.611686652934,,http://www.adelaidemetro.com.au/stops/view/329,,
331,,Stop 56 Mofflin Rd - West side,,-34.74105, 138.6645,,http://www.adelaidemetro.com.au/stops/view/331,,
334,,Stop 59 Waterloo Corner Rd - North East side,,-34.743, 138.60988,,http://www.adelaidemetro.com.au/stops/view/334,,
335,,Stop 57 Haydown Rd - West side,,-34.7399042072728, 138.669275617967,,http://www.adelaidemetro.com.au/stops/view/335,,
336,,Stop 59 Waterloo Corner Rd - South West side,,-34.74292, 138.60964,,http://www.adelaidemetro.com.au/stops/view/336,,
337,,Stop 57 Haydown Rd - East side,,-34.7399034052716, 138.669455105442,,http://www.adelaidemetro.com.au/stops/view/337,,
338,,Stop 56B Hogarth Rd - North side,,-34.7415922477534, 138.671536914796,,http://www.adelaidemetro.com.au/stops/view/338,,
339,,Stop 56B Hogarth Rd - South side,,-34.7417673533368, 138.670380782446,,http://www.adelaidemetro.com.au/stops/view/339,,
341,,Stop 56 Main North Rd - North East side,,-34.7419603127659, 138.676459465115,,http://www.adelaidemetro.com.au/stops/view/341,,
344,,Stop 55A Mofflin Rd - West side,,-34.74253, 138.6636,,http://www.adelaidemetro.com.au/stops/view/344,,
345,,Stop 55A Mofflin Rd - East side,,-34.74269, 138.66365,,http://www.adelaidemetro.com.au/stops/view/345,,
346,,Stop 61A Whites Rd - West side,,-34.74162, 138.62811,,http://www.adelaidemetro.com.au/stops/view/346,,
347,,Stop 56 Christine Av - North West side,,-34.74236, 138.68059,,http://www.adelaidemetro.com.au/stops/view/347,,
348,,Stop 56 Christine Av - East side,,-34.74238, 138.68071,,http://www.adelaidemetro.com.au/stops/view/348,,
349,,Stop 58 Waterloo Corner Rd - North East side,,-34.745152460624, 138.613618728998,,http://www.adelaidemetro.com.au/stops/view/349,,
351,,Stop 64 Kensington Wy - West side,,-34.7445, 138.59733,,http://www.adelaidemetro.com.au/stops/view/351,,
352,,Stop 61A Whites Rd - East side,,-34.74233, 138.62766,,http://www.adelaidemetro.com.au/stops/view/352,,
353,,Stop 56A Guerin Rd - West side,,-34.74235, 138.6737,,http://www.adelaidemetro.com.au/stops/view/353,,
354,,Stop 64 Kensington Wy - West side,,-34.74483, 138.5972,,http://www.adelaidemetro.com.au/stops/view/354,,
355,,Stop 60A Quadrant Av - North East side,,-34.7438245675978, 138.627298168107,,http://www.adelaidemetro.com.au/stops/view/355,,
356,,Stop 56 Philip Hwy - East side,,-34.7425878202371, 138.657632894038,,http://www.adelaidemetro.com.au/stops/view/356,,
357,,Stop 55 Menka St - North East side,,-34.74365, 138.6789,,http://www.adelaidemetro.com.au/stops/view/357,,
358,,Stop 55 Main North Rd - West side,,-34.7442528836518, 138.67609675012,,http://www.adelaidemetro.com.au/stops/view/358,,
359,,Stop 56 Philip Hwy - West side,,-34.742447491207, 138.657261906341,,http://www.adelaidemetro.com.au/stops/view/359,,
360,,Stop 60A Quadrant Av - South side,,-34.74365, 138.62695,,http://www.adelaidemetro.com.au/stops/view/360,,
361,,Stop 55 Menka St - South side,,-34.74341, 138.6788,,http://www.adelaidemetro.com.au/stops/view/361,,
362,,Stop 56A Guerin Rd - East side,,-34.74272, 138.67386,,http://www.adelaidemetro.com.au/stops/view/362,,
363,,Stop 55 Mofflin Rd - East side,,-34.74477, 138.66232,,http://www.adelaidemetro.com.au/stops/view/363,,
364,,Stop 55 Main North Rd - North East side,,-34.7446732191243, 138.676571429411,,http://www.adelaidemetro.com.au/stops/view/364,,
365,,Stop 55 Mofflin Rd - West side,,-34.74503, 138.66202,,http://www.adelaidemetro.com.au/stops/view/365,,
366,,Stop 59A Quadrant Av - North side,,-34.7449046992013, 138.629062584657,,http://www.adelaidemetro.com.au/stops/view/366,,
367,,Stop 65 Kensington Wy - West side,,-34.74717, 138.5962,,http://www.adelaidemetro.com.au/stops/view/367,,
369,,Stop 59A Quadrant Av - South side,,-34.7447488758146, 138.628637493871,,http://www.adelaidemetro.com.au/stops/view/369,,
370,,Stop 57 Waterloo Corner Rd - North East side,,-34.74666, 138.6161,,http://www.adelaidemetro.com.au/stops/view/370,,
371,,Stop 65 Kensington Wy - West side,,-34.74669, 138.59626,,http://www.adelaidemetro.com.au/stops/view/371,,
372,,Stop 54B Henryk Dr - South East side,,-34.74517, 138.67902,,http://www.adelaidemetro.com.au/stops/view/372,,
373,,Stop 56 Guerin Rd - West side,,-34.74509, 138.67294,,http://www.adelaidemetro.com.au/stops/view/373,,
374,,Stop 56 Guerin Rd - East side,,-34.74495, 138.67318,,http://www.adelaidemetro.com.au/stops/view/374,,
375,,Stop 54B Henryk Dr - West side,,-34.74567, 138.67867,,http://www.adelaidemetro.com.au/stops/view/375,,
378,,Stop 57 Waterloo Corner Rd - South West side,,-34.74678, 138.61586,,http://www.adelaidemetro.com.au/stops/view/378,,
379,,Stop 58A Quadrant Av - North side,,-34.746109, 138.631049,,http://www.adelaidemetro.com.au/stops/view/379,,
380,,Stop 56 Waterloo Corner Rd - South West side,,-34.74847, 138.61888,,http://www.adelaidemetro.com.au/stops/view/380,,
384,,Stop 56 Waterloo Corner Rd - North East side,,-34.74824, 138.61863,,http://www.adelaidemetro.com.au/stops/view/384,,
387,,Stop 54A Bungarra St - North East side,,-34.74748, 138.67871,,http://www.adelaidemetro.com.au/stops/view/387,,
388,,Stop 55A John Rice Av - South East side,,-34.74737, 138.6725,,http://www.adelaidemetro.com.au/stops/view/388,,
389,,Stop 55A John Rice Av - North West side,,-34.74733, 138.67206,,http://www.adelaidemetro.com.au/stops/view/389,,
390,,Stop 58A Parallel Av - North West side,,-34.746554, 138.630983,,http://www.adelaidemetro.com.au/stops/view/390,,
392,,Stop 54A Bungarra St - South side,,-34.74756, 138.67878,,http://www.adelaidemetro.com.au/stops/view/392,,
393,,Stop 66 Burton Rd - North East side,,-34.74878, 138.59787,,http://www.adelaidemetro.com.au/stops/view/393,,
394,,Stop 66 Burton Rd - South West side,,-34.7489247784302, 138.597914501293,,http://www.adelaidemetro.com.au/stops/view/394,,
395,,Stop 55 Waterloo Corner Rd - North East side,,-34.74933, 138.62052,,http://www.adelaidemetro.com.au/stops/view/395,,
396,,Stop 54 Main North Rd - North East side,,-34.74882, 138.67769,,http://www.adelaidemetro.com.au/stops/view/396,,
397,,Stop 54 Main North Rd - South West side,,-34.74891, 138.67737,,http://www.adelaidemetro.com.au/stops/view/397,,
398,,Stop 55 John Rice Av - North West side,,-34.74849, 138.66787,,http://www.adelaidemetro.com.au/stops/view/398,,
399,,Stop 55 John Rice Av - South East side,,-34.74875, 138.66756,,http://www.adelaidemetro.com.au/stops/view/399,,
400,,Stop 56A Deane St - North West side,,-34.75003, 138.63178,,http://www.adelaidemetro.com.au/stops/view/400,,
401,,Stop 57A Parallel Av - East side,,-34.74839, 138.629469,,http://www.adelaidemetro.com.au/stops/view/401,,
402,,Stop 56A Kelsey Rd - South West side,,-34.7500141730552, 138.63110815237,,http://www.adelaidemetro.com.au/stops/view/402,,
403,,Stop 55A Deane St - North side,,-34.74891, 138.63457,,http://www.adelaidemetro.com.au/stops/view/403,,
404,,Stop 67 Burton Rd - North East side,,-34.750099, 138.600254,,http://www.adelaidemetro.com.au/stops/view/404,,
405,,Stop 57A Kelsey Rd - South side,,-34.7491404063825, 138.629664035198,,http://www.adelaidemetro.com.au/stops/view/405,,
406,,Stop 55 Waterloo Corner Rd - South West side,,-34.7499, 138.62098,,http://www.adelaidemetro.com.au/stops/view/406,,
407,,Stop 67 Burton Rd - South West side,,-34.75038, 138.60022,,http://www.adelaidemetro.com.au/stops/view/407,,
408,,Stop 55A Deane St - South side,,-34.74903, 138.6342,,http://www.adelaidemetro.com.au/stops/view/408,,
409,,Stop 54A John Rice Av - North West side,,-34.7495301999501, 138.664196092077,,http://www.adelaidemetro.com.au/stops/view/409,,
410,,Stop 54A John Rice Av - South East side,,-34.74959, 138.66448,,http://www.adelaidemetro.com.au/stops/view/410,,
413,,Stop 54 Waterloo Corner Rd - North East side,,-34.75125, 138.62353,,http://www.adelaidemetro.com.au/stops/view/413,,
414,,Stop 54 Waterloo Corner Rd - South West side,,-34.75121, 138.62323,,http://www.adelaidemetro.com.au/stops/view/414,,
415,,Stop 54 John Rice Av - North West side,,-34.7502, 138.66179,,http://www.adelaidemetro.com.au/stops/view/415,,
416,,Stop 54 John Rice Av - South East side,,-34.75032, 138.66195,,http://www.adelaidemetro.com.au/stops/view/416,,
417,,Stop 53C John Rice Av - North West side,,-34.75083, 138.65968,,http://www.adelaidemetro.com.au/stops/view/417,,
418,,Stop 53C John Rice Av - South East side,,-34.7509230896689, 138.659828279057,,http://www.adelaidemetro.com.au/stops/view/418,,
419,,Stop 54A Belinda Cr - South West side,,-34.75032, 138.63541,,http://www.adelaidemetro.com.au/stops/view/419,,
420,,Stop 53A John Rice Av - North West side,,-34.75166, 138.6558,,http://www.adelaidemetro.com.au/stops/view/420,,
421,,Stop 68 Burton Rd - South West side,,-34.7517649001601, 138.602550260811,,http://www.adelaidemetro.com.au/stops/view/421,,
422,,Stop 53 Main North Rd - East side,,-34.75168, 138.67946,,http://www.adelaidemetro.com.au/stops/view/422,,
424,,Stop 53 Black Top Rd - North side,,-34.75107, 138.68027,,http://www.adelaidemetro.com.au/stops/view/424,,
425,,Stop 53 Waterloo Corner Rd - South side,,-34.75378, 138.62731,,http://www.adelaidemetro.com.au/stops/view/425,,
427,,Stop 53A Motcombe Rd - West side,,-34.75199, 138.6367,,http://www.adelaidemetro.com.au/stops/view/427,,
428,,Stop 44A Burton Rd - North East side,,-34.75417, 138.60674,,http://www.adelaidemetro.com.au/stops/view/428,,
429,,Stop 53B Hamdon Rd - North side,,-34.75276, 138.65689,,http://www.adelaidemetro.com.au/stops/view/429,,
430,,Stop 53B Jarvis Rd - East side,,-34.7523908396304, 138.656466912165,,http://www.adelaidemetro.com.au/stops/view/430,,
432,,Stop 53 Waterloo Corner Rd - North East side,,-34.75322, 138.62702,,http://www.adelaidemetro.com.au/stops/view/432,,
433,,Stop 52P Halba Cr - South East side,,-34.75233, 138.62426,,http://www.adelaidemetro.com.au/stops/view/433,,
434,,Stop 44A Burton Rd - South West side,,-34.75385, 138.60603,,http://www.adelaidemetro.com.au/stops/view/434,,
435,,Stop 52P Halba Cr - North West side,,-34.75225, 138.62419,,http://www.adelaidemetro.com.au/stops/view/435,,
436,,Stop 52A Downton Av - South East side,,-34.7534724707301, 138.636905849386,,http://www.adelaidemetro.com.au/stops/view/436,,
437,,Stop 52A Downton Av - North West side,,-34.7538960426605, 138.636376506318,,http://www.adelaidemetro.com.au/stops/view/437,,
443,,Stop 53A Jarvis Rd - North West side,,-34.7547140631858, 138.655407757667,,http://www.adelaidemetro.com.au/stops/view/443,,
444,,Stop 53A Jarvis Rd - South East side,,-34.7547418393114, 138.655552136796,,http://www.adelaidemetro.com.au/stops/view/444,,
445,,Stop 51P Halba Cr - East side,,-34.7539807075475, 138.622835064021,,http://www.adelaidemetro.com.au/stops/view/445,,
447,,Stop 51P Halba Cr - North West side,,-34.753951623554, 138.62269325794,,http://www.adelaidemetro.com.au/stops/view/447,,
448,,Stop 44B Burton Rd - South West side,,-34.7556411163928, 138.608946560738,,http://www.adelaidemetro.com.au/stops/view/448,,
451,,Stop 44B Burton Rd - North East side,,-34.7554775695614, 138.608929581818,,http://www.adelaidemetro.com.au/stops/view/451,,
452,,Stop 52A Porter St - South West side,,-34.7552688901165, 138.651303624712,,http://www.adelaidemetro.com.au/stops/view/452,,
453,,Stop 52A Porter St - North East side,,-34.7554339978758, 138.651787056377,,http://www.adelaidemetro.com.au/stops/view/453,,
454,,Stop 52 Main North Rd - North West side,,-34.7554196019277, 138.677836380658,,http://www.adelaidemetro.com.au/stops/view/454,,
455,,Stop 52 Main North Rd - South East side,,-34.7555117253658, 138.678258757114,,http://www.adelaidemetro.com.au/stops/view/455,,
456,,Stop 52 Waterloo Corner Rd - South side,,-34.755598735658, 138.630442401576,,http://www.adelaidemetro.com.au/stops/view/456,,
457,,Stop 51A Downton Av - East side,,-34.7571889914689, 138.633651131015,,http://www.adelaidemetro.com.au/stops/view/457,,
458,,Stop 44C Burton Rd - North East side,,-34.7565092568626, 138.610620210633,,http://www.adelaidemetro.com.au/stops/view/458,,
459,,Stop 52 Waterloo Corner Rd - North East side,,-34.7555974514061, 138.63070115879,,http://www.adelaidemetro.com.au/stops/view/459,,
460,,Stop 53 Jarvis Rd - North West side,,-34.7563605843892, 138.654366032203,,http://www.adelaidemetro.com.au/stops/view/460,,
461,,Stop 52 Brian St - North East side,,-34.7564010781707, 138.649704254032,,http://www.adelaidemetro.com.au/stops/view/461,,
462,,Stop 43C Liberator Dr - East side,,-34.7553205153955, 138.593906082371,,http://www.adelaidemetro.com.au/stops/view/462,,
463,,Stop 44C Burton Rd - South West side,,-34.7572208814927, 138.611547443627,,http://www.adelaidemetro.com.au/stops/view/463,,
464,,Stop 43C Liberator Dr - West side,,-34.7551278640233, 138.593817264659,,http://www.adelaidemetro.com.au/stops/view/464,,
465,,Stop 52 Commercial Rd - South East side,,-34.756517946481, 138.649168999696,,http://www.adelaidemetro.com.au/stops/view/465,,
466,,Stop 53 Jarvis Rd - South East side,,-34.756613222027, 138.654375974442,,http://www.adelaidemetro.com.au/stops/view/466,,
467,,Stop 47P Whites Rd - North West side,,-34.7579092651456, 138.613611132506,,http://www.adelaidemetro.com.au/stops/view/467,,
468,,Stop 47P Whites Rd - South East side,,-34.7579196845512, 138.613793362463,,http://www.adelaidemetro.com.au/stops/view/468,,
469,,Stop 51 Waterloo Corner Rd - South side,,-34.7570380702412, 138.632806192432,,http://www.adelaidemetro.com.au/stops/view/469,,
470,,Stop 50P Vindana Rd - North West side,,-34.7557791105491, 138.622801050344,,http://www.adelaidemetro.com.au/stops/view/470,,
471,,Stop 45 Burton Rd - North East side,,-34.7578716986584, 138.612885483562,,http://www.adelaidemetro.com.au/stops/view/471,,
472,,Stop 50P Vindana Rd - South East side,,-34.75641, 138.62233,,http://www.adelaidemetro.com.au/stops/view/472,,
474,,Stop 48P Yalumba Dr - North East side,,-34.756672227217, 138.615951477287,,http://www.adelaidemetro.com.au/stops/view/474,,
475,,Stop 48P Yalumba Dr - South West side,,-34.7570393287365, 138.616320671936,,http://www.adelaidemetro.com.au/stops/view/475,,
476,,Stop 45 Burton Rd - South West side,,-34.7585941226834, 138.613765038528,,http://www.adelaidemetro.com.au/stops/view/476,,
477,,Stop 51 Main North Rd - South East side,,-34.7585088630679, 138.676448123343,,http://www.adelaidemetro.com.au/stops/view/477,,
478,,Stop 46P Whites Rd - South East side,,-34.7597640711823, 138.612146176636,,http://www.adelaidemetro.com.au/stops/view/478,,
479,,Stop 45A Burton Rd - North East side,,-34.75947, 138.61553,,http://www.adelaidemetro.com.au/stops/view/479,,
480,,Stop 43B Liberator Dr - East side,,-34.7575810354803, 138.593571793402,,http://www.adelaidemetro.com.au/stops/view/480,,
481,,Stop 46P Whites Rd - North West side,,-34.7594153477273, 138.61225116839,,http://www.adelaidemetro.com.au/stops/view/481,,
482,,Stop 43B Liberator Dr - West side,,-34.7576943018177, 138.593458274544,,http://www.adelaidemetro.com.au/stops/view/482,,
483,,Stop 51 Main North Rd - North West side,,-34.7589715938358, 138.675531875073,,http://www.adelaidemetro.com.au/stops/view/483,,
484,,Stop 45A Burton Rd - South West side,,-34.7599093142197, 138.615982092592,,http://www.adelaidemetro.com.au/stops/view/484,,
485,,Stop 50A Waterloo Corner Rd - North East side,,-34.7601480472391, 138.63687553455,,http://www.adelaidemetro.com.au/stops/view/485,,
486,,Stop 57 Goddard Dr - North side,,-34.7602646296151, 138.668182882181,,http://www.adelaidemetro.com.au/stops/view/486,,
487,,Stop 57 Goddard Dr - South side,,-34.7603339323175, 138.66804793889,,http://www.adelaidemetro.com.au/stops/view/487,,
488,,Stop 56A Goddard Dr - North West side,,-34.7596096475215, 138.664996909486,,http://www.adelaidemetro.com.au/stops/view/488,,
489,,Stop 56A Goddard Dr - South side,,-34.7598560384353, 138.664537873402,,http://www.adelaidemetro.com.au/stops/view/489,,
490,,Stop 51 Commercial Rd - South West side,,-34.76007, 138.64841,,http://www.adelaidemetro.com.au/stops/view/490,,
491,,Stop 43A Liberator Dr - North East side,,-34.75933, 138.59538,,http://www.adelaidemetro.com.au/stops/view/491,,
492,,Stop 63 Target Hill Rd - North side,,-34.7608970380743, 138.681686317367,,http://www.adelaidemetro.com.au/stops/view/492,,
493,,Stop 62A Target Hill Rd - South side,,-34.7603827089001, 138.67728357128,,http://www.adelaidemetro.com.au/stops/view/493,,
494,,Stop 50A Waterloo Corner Rd - South West side,,-34.7606113539129, 138.637138835641,,http://www.adelaidemetro.com.au/stops/view/494,,
495,,Stop 43A Liberator Dr - South West side,,-34.759369, 138.595228,,http://www.adelaidemetro.com.au/stops/view/495,,
496,,Stop 51 Commercial Rd - North East side,,-34.7602838412392, 138.648720206989,,http://www.adelaidemetro.com.au/stops/view/496,,
497,,Stop 45B Burton Rd - North East side,,-34.7613603483631, 138.618615416249,,http://www.adelaidemetro.com.au/stops/view/497,,
498,,Stop 55 Saints Rd - South side,,-34.7606057401726, 138.660071711693,,http://www.adelaidemetro.com.au/stops/view/498,,
499,,Stop 58 Carlingford Dr - South East side,,-34.7616587908938, 138.668996532417,,http://www.adelaidemetro.com.au/stops/view/499,,
500,,Stop 56 Goddard Dr - South East side,,-34.7603576160856, 138.662736806332,,http://www.adelaidemetro.com.au/stops/view/500,,
501,,Stop 58 Carlingford Dr - North West side,,-34.7616996572478, 138.668835682786,,http://www.adelaidemetro.com.au/stops/view/501,,
502,,Stop 56 Goddard Dr - North West side,,-34.7602352866924, 138.662765899448,,http://www.adelaidemetro.com.au/stops/view/502,,
503,,Stop 45B Burton Rd - South West side,,-34.7616879444716, 138.61891854883,,http://www.adelaidemetro.com.au/stops/view/503,,
504,,Stop 45P Whites Rd - South East side,,-34.7623254323563, 138.609859855023,,http://www.adelaidemetro.com.au/stops/view/504,,
505,,Stop 45P Whites Rd - North West side,,-34.7627850581903, 138.60927019679,,http://www.adelaidemetro.com.au/stops/view/505,,
507,,Stop 50 / A John St - South side,,-34.7614716140135, 138.648300745954,,http://www.adelaidemetro.com.au/stops/view/507,,
508,,Stop 63A Target Hill Rd - North side,,-34.762083263279, 138.684598511813,,http://www.adelaidemetro.com.au/stops/view/508,,
509,,Stop 55 Saints Rd - North side,,-34.7614052638332, 138.661624913764,,http://www.adelaidemetro.com.au/stops/view/509,,
510,,Stop 63 Target Hill Rd - South West side,,-34.7610219823195, 138.681676503567,,http://www.adelaidemetro.com.au/stops/view/510,,
512,,Stop 50 Main North Rd - South East side,,-34.7616537068281, 138.673789435418,,http://www.adelaidemetro.com.au/stops/view/512,,
513,,Stop 50 / B Ann St - East side,,-34.761835, 138.648203,,http://www.adelaidemetro.com.au/stops/view/513,,
514,,Stop 50 Main North Rd - North West side,,-34.7616380499448, 138.673227835644,,http://www.adelaidemetro.com.au/stops/view/514,,
515,,Stop 50 / E Ann St - West side,,-34.7617628748645, 138.647974257502,,http://www.adelaidemetro.com.au/stops/view/515,,
516,,Stop 43 Kings Rd - South side,,-34.7616111340013, 138.597292552342,,http://www.adelaidemetro.com.au/stops/view/516,,
517,,Stop 49 Church St - West side,,-34.7626393233711, 138.64540240383,,http://www.adelaidemetro.com.au/stops/view/517,,
518,,Stop 58 Saints Rd - North East side,,-34.7624453258536, 138.663327241467,,http://www.adelaidemetro.com.au/stops/view/518,,
519,,Stop 49A Waterloo Corner Rd - South West side,,-34.7623212733944, 138.638856672085,,http://www.adelaidemetro.com.au/stops/view/519,,
520,,Stop 43 Kings Rd - North side,,-34.7615129499135, 138.597399054765,,http://www.adelaidemetro.com.au/stops/view/520,,
521,,Stop 54 Fenden Rd - South East side,,-34.7607714724578, 138.658739216346,,http://www.adelaidemetro.com.au/stops/view/521,,
522,,Stop 45C Burton Rd - North East side,,-34.763229990508, 138.621355377637,,http://www.adelaidemetro.com.au/stops/view/522,,
523,,Stop 50 / C Ann St - East side,,-34.761965, 138.648272,,http://www.adelaidemetro.com.au/stops/view/523,,
525,,Zone D Salisbury Interchange - West Side,,-34.76222376518, 138.6424961686,,http://www.adelaidemetro.com.au/stops/view/525,,
526,,Zone E Salisbury Interchange - East Side,,-34.76219798876, 138.6426195502,,http://www.adelaidemetro.com.au/stops/view/526,,
527,,Stop 49A Waterloo Corner Rd - North East side,,-34.7613541338157, 138.638096245329,,http://www.adelaidemetro.com.au/stops/view/527,,
528,,Zone F Salisbury Intercnage - East Side,,-34.76258690618, 138.6426490545,,http://www.adelaidemetro.com.au/stops/view/528,,
529,,Stop 51 Waterloo Corner Rd - North side,,-34.7570022276708, 138.633008384534,,http://www.adelaidemetro.com.au/stops/view/529,,
530,,Stop 54 Fenden Rd - North West side,,-34.7607542075325, 138.658581865571,,http://www.adelaidemetro.com.au/stops/view/530,,
531,,Stop 58A Carlingford Dr - East side,,-34.7637310998938, 138.667149679687,,http://www.adelaidemetro.com.au/stops/view/531,,
532,,Stop 45C Burton Rd - South West side,,-34.7633708678924, 138.621303028907,,http://www.adelaidemetro.com.au/stops/view/532,,
533,,Stop 48A Church St - North West side,,-34.7644972329884, 138.645841823645,,http://www.adelaidemetro.com.au/stops/view/533,,
534,,Zone C Salisbury Interchange - West Side,,-34.7627565749596, 138.642547130585,,http://www.adelaidemetro.com.au/stops/view/534,,
537,,Stop 50 Salisbury Hwy - South East side,,-34.7563395092402, 138.646750357037,,http://www.adelaidemetro.com.au/stops/view/537,,
538,,Zone G Salisbury Interchange,,-34.76274886275, 138.6426718533,,http://www.adelaidemetro.com.au/stops/view/538,,
539,,Stop 64 Target Hill Rd - North East side,,-34.7638279835343, 138.688280171631,,http://www.adelaidemetro.com.au/stops/view/539,,
540,,Stop 58A Carlingford Dr - West side,,-34.7640432657097, 138.666726888035,,http://www.adelaidemetro.com.au/stops/view/540,,
541,,Zone B Salisbury Interchange - West Side,,-34.7630529436145, 138.64259541,,http://www.adelaidemetro.com.au/stops/view/541,,
542,,Stop 44P Whites Rd - South East side,,-34.7639545235386, 138.608413784696,,http://www.adelaidemetro.com.au/stops/view/542,,
543,,Zone H Salisbury Interchange - East Side,,-34.76304082447, 138.64271208644,,http://www.adelaidemetro.com.au/stops/view/543,,
544,,Stop 47A Winzor St - North West side,,-34.7633622910489, 138.636063430858,,http://www.adelaidemetro.com.au/stops/view/544,,
545,,Stop 47 Winzor St - North West side,,-34.763023073362, 138.631357987095,,http://www.adelaidemetro.com.au/stops/view/545,,
546,,Stop 47A Winzor St - South East side,,-34.7634769942751, 138.635808003885,,http://www.adelaidemetro.com.au/stops/view/546,,
547,,Zone A Salisbury Interchange - West Side,,-34.7633702441923, 138.642643690109,,http://www.adelaidemetro.com.au/stops/view/547,,
548,,Stop 47 Winzor St - South East side,,-34.7631814412533, 138.63164248791,,http://www.adelaidemetro.com.au/stops/view/548,,
549,,Zone I Salisbury Interchange - East Side,,-34.763407703, 138.6427469555,,http://www.adelaidemetro.com.au/stops/view/549,,
550,,Stop 42B Kings Rd - South side,,-34.7629185005198, 138.599453260685,,http://www.adelaidemetro.com.au/stops/view/550,,
551,,Stop 48A Park Tce - South West side,,-34.76525, 138.64623,,http://www.adelaidemetro.com.au/stops/view/551,,
552,,Stop 49 Main North Rd - North West side,,-34.7637492966297, 138.671389146436,,http://www.adelaidemetro.com.au/stops/view/552,,
553,,Stop 62 Canterbury Dr - West side,,-34.7627653783998, 138.6752922931,,http://www.adelaidemetro.com.au/stops/view/553,,
554,,Stop 52 Ponton St - North East side,,-34.7646331015092, 138.65443358425,,http://www.adelaidemetro.com.au/stops/view/554,,
555,,Stop 52 Ponton St - South side,,-34.7646557230791, 138.654273786389,,http://www.adelaidemetro.com.au/stops/view/555,,
556,,Stop 42B Kings Rd - North side,,-34.7632644319141, 138.600298559011,,http://www.adelaidemetro.com.au/stops/view/556,,
557,,Stop 64 Target Hill Rd - South West side,,-34.7632383284385, 138.687116516878,,http://www.adelaidemetro.com.au/stops/view/557,,
558,,Stop 49 Main North Rd - South East side,,-34.7642560011532, 138.671520691773,,http://www.adelaidemetro.com.au/stops/view/558,,
559,,Stop 44P Whites Rd - North West side,,-34.7648490750187, 138.607432731629,,http://www.adelaidemetro.com.au/stops/view/559,,
560,,Stop 53 Fenden Rd - North West side,,-34.7634891825997, 138.656143322296,,http://www.adelaidemetro.com.au/stops/view/560,,
561,,Stop 64A Target Hill Rd - North East side,,-34.7649601818649, 138.689641061544,,http://www.adelaidemetro.com.au/stops/view/561,,
562,,Stop 62 Canterbury Dr - East side,,-34.76294122268, 138.675314058849,,http://www.adelaidemetro.com.au/stops/view/562,,
563,,Stop 53 Fenden Rd - South East side,,-34.7638061592105, 138.656041410652,,http://www.adelaidemetro.com.au/stops/view/563,,
564,,Stop 59 Saints Rd - North side,,-34.7654012552357, 138.668336768785,,http://www.adelaidemetro.com.au/stops/view/564,,
565,,Stop 45D Burton Rd - North East side,,-34.7655894959484, 138.62553503082,,http://www.adelaidemetro.com.au/stops/view/565,,
566,,Stop 59 Saints Rd - South West side,,-34.7655496227699, 138.668096522338,,http://www.adelaidemetro.com.au/stops/view/566,,
567,,Stop 45D Burton Rd - South West side,,-34.7657494493035, 138.625523631352,,http://www.adelaidemetro.com.au/stops/view/567,,
568,,Stop 46A Winzor St - South East side,,-34.76468, 138.62798,,http://www.adelaidemetro.com.au/stops/view/568,,
569,,Stop 43P Whites Rd - South East side,,-34.7663817839535, 138.606255960009,,http://www.adelaidemetro.com.au/stops/view/569,,
570,,Stop 42A Kings Rd - North side,,-34.7646472068811, 138.602587130922,,http://www.adelaidemetro.com.au/stops/view/570,,
571,,Stop 46A Winzor St - West side,,-34.7645424320188, 138.627913108622,,http://www.adelaidemetro.com.au/stops/view/571,,
572,,Stop 43P Whites Rd - North West side,,-34.7662618508974, 138.60616268191,,http://www.adelaidemetro.com.au/stops/view/572,,
573,,Stop 65 Target Hill Rd - North side,,-34.76613927823, 138.694642240181,,http://www.adelaidemetro.com.au/stops/view/573,,
574,,Stop 64A Target Hill Rd - South side,,-34.7651625369842, 138.689763364766,,http://www.adelaidemetro.com.au/stops/view/574,,
575,,Stop 47 Thomas St - North East side,,-34.7662100766439, 138.637295760592,,http://www.adelaidemetro.com.au/stops/view/575,,
577,,Stop 61A Canterbury Dr - South side,,-34.7655208658502, 138.673903055573,,http://www.adelaidemetro.com.au/stops/view/577,,
579,,Stop 45 Winzor St - North West side,,-34.767132179539, 138.623815641562,,http://www.adelaidemetro.com.au/stops/view/579,,
580,,Stop 60 The Grove Wy - South side,,-34.7669986895596, 138.671102780716,,http://www.adelaidemetro.com.au/stops/view/580,,
581,,Stop 76 Golden Grove Rd - North East side,,-34.7660925343247, 138.713795434379,,http://www.adelaidemetro.com.au/stops/view/581,,
582,,Stop 61A Canterbury Dr - North side,,-34.7659361635798, 138.674978785666,,http://www.adelaidemetro.com.au/stops/view/582,,
583,,Stop 60 The Grove Wy - North side,,-34.7669224415202, 138.671596997509,,http://www.adelaidemetro.com.au/stops/view/583,,
584,,Stop 45 Winzor St - South East side,,-34.7672469011715, 138.623945901735,,http://www.adelaidemetro.com.au/stops/view/584,,
585,,Stop 65A Target Hill Rd - North side,,-34.7672680270265, 138.698549706708,,http://www.adelaidemetro.com.au/stops/view/585,,
586,,Stop 46 Salisbury Hwy - East side,,-34.766892775432, 138.637567515296,,http://www.adelaidemetro.com.au/stops/view/586,,
587,,Stop 48 Park Tce - North East side,,-34.7680367655856, 138.651016973141,,http://www.adelaidemetro.com.au/stops/view/587,,
588,,Stop 65 Target Hill Rd - South side,,-34.766331112549, 138.694789545897,,http://www.adelaidemetro.com.au/stops/view/588,,
589,,Stop 48 Park Tce - South West side,,-34.768106796989, 138.650841373053,,http://www.adelaidemetro.com.au/stops/view/589,,
590,,Stop 46 Salisbury Hwy - North West side,,-34.7669061365979, 138.637260934676,,http://www.adelaidemetro.com.au/stops/view/590,,
591,,Stop 60A The Grove Wy - North side,,-34.7677048821858, 138.673689798633,,http://www.adelaidemetro.com.au/stops/view/591,,
592,,Stop 74A Golden Grove Rd - South East side,,-34.7700410451364, 138.708463576528,,http://www.adelaidemetro.com.au/stops/view/592,,
593,,Stop 60A The Grove Wy - South side,,-34.7678479924453, 138.673497929062,,http://www.adelaidemetro.com.au/stops/view/593,,
594,,Stop 45C Spains Rd - South East side,,-34.76657, 138.62693,,http://www.adelaidemetro.com.au/stops/view/594,,
595,,Stop 74A Golden Grove Rd - North West side,,-34.7701115424252, 138.708260556337,,http://www.adelaidemetro.com.au/stops/view/595,,
596,,Stop 45C Spains Rd - North side,,-34.76664, 138.6273,,http://www.adelaidemetro.com.au/stops/view/596,,
599,,Stop 65A Target Hill Rd - South side,,-34.767361498157, 138.69824559434,,http://www.adelaidemetro.com.au/stops/view/599,,
601,,Stop 42A Kings Rd - South side,,-34.7645521950908, 138.602164659928,,http://www.adelaidemetro.com.au/stops/view/601,,
602,,Stop 61 Canterbury Dr - West side,,-34.7675419544115, 138.676325889229,,http://www.adelaidemetro.com.au/stops/view/602,,
603,,Stop 61 Canterbury Dr - East side,,-34.767677275839, 138.676438969945,,http://www.adelaidemetro.com.au/stops/view/603,,
604,,Stop 48A Main North Rd - South East side,,-34.7685587112448, 138.667666086727,,http://www.adelaidemetro.com.au/stops/view/604,,
605,,Stop 47D Park Tce - North East side,,-34.7698863517835, 138.654018586706,,http://www.adelaidemetro.com.au/stops/view/605,,
606,,Stop 47D Park Tce - South side,,-34.7699196019175, 138.653745561183,,http://www.adelaidemetro.com.au/stops/view/606,,
607,,Stop 47B Cross Keys Rd - East side,,-34.770728693524, 138.650000963312,,http://www.adelaidemetro.com.au/stops/view/607,,
608,,Stop 73 The Golden Wy - East side,,-34.7700813494563, 138.718867442711,,http://www.adelaidemetro.com.au/stops/view/608,,
609,,Stop 45B Spains Rd - North side,,-34.7685049023292, 138.630360062003,,http://www.adelaidemetro.com.au/stops/view/609,,
610,,Stop 48A Main North Rd - North West side,,-34.7690621860768, 138.6667254115,,http://www.adelaidemetro.com.au/stops/view/610,,
611,,Stop 45B Spains Rd - South side,,-34.7682820673217, 138.629729885636,,http://www.adelaidemetro.com.au/stops/view/611,,
612,,Stop 43 Martins Rd - West side,,-34.77014, 138.61853,,http://www.adelaidemetro.com.au/stops/view/612,,
613,,Stop 73 The Golden Wy - West side,,-34.7700362450382, 138.718685889211,,http://www.adelaidemetro.com.au/stops/view/613,,
614,,Stop 43 Martins Rd - East side,,-34.7692578839699, 138.619513560533,,http://www.adelaidemetro.com.au/stops/view/614,,
615,,Stop 45 Salisbury Hwy - West side,,-34.7692635701729, 138.635141132052,,http://www.adelaidemetro.com.au/stops/view/615,,
616,,Stop 47B Cross Keys Rd - West side,,-34.7704038739286, 138.650112146446,,http://www.adelaidemetro.com.au/stops/view/616,,
617,,Stop 45 Salisbury Hwy - East side,,-34.7694479069821, 138.635273330749,,http://www.adelaidemetro.com.au/stops/view/617,,
618,,Stop 75 Target Hill Rd - South side,,-34.770447727934, 138.705520080142,,http://www.adelaidemetro.com.au/stops/view/618,,
619,,Stop 75 Target Hill Rd - North side,,-34.7705822809868, 138.705977028032,,http://www.adelaidemetro.com.au/stops/view/619,,
620,,Stop 77 Golden Grove Rd - North side,,-34.7683655097241, 138.7174668325,,http://www.adelaidemetro.com.au/stops/view/620,,
621,,Stop 47C Park Tce - North East side,,-34.7711831640515, 138.656177653921,,http://www.adelaidemetro.com.au/stops/view/621,,
623,,Stop 47C Park Tce - South West side,,-34.771473288594, 138.65622964551,,http://www.adelaidemetro.com.au/stops/view/623,,
624,,Stop 77 Golden Grove Rd - South side,,-34.76845, 138.7174,,http://www.adelaidemetro.com.au/stops/view/624,,
627,,Stop 63A Target Hill Rd - South side,,-34.7623399132068, 138.684916169842,,http://www.adelaidemetro.com.au/stops/view/627,,
628,,Stop 47A Cross Keys Rd - East side,,-34.7729657938786, 138.647993038983,,http://www.adelaidemetro.com.au/stops/view/628,,
629,,Stop 72 The Golden Wy - West side,,-34.7728969127155, 138.717541894132,,http://www.adelaidemetro.com.au/stops/view/629,,
630,,Stop 44 Salisbury Hwy - West side,,-34.7716062974832, 138.632995971921,,http://www.adelaidemetro.com.au/stops/view/630,,
631,,Stop 44 Salisbury Hwy - South East side,,-34.7719094667484, 138.633060923094,,http://www.adelaidemetro.com.au/stops/view/631,,
632,,Stop 40P Andrew Smith Dr - East side,,-34.7714210320047, 138.610255875193,,http://www.adelaidemetro.com.au/stops/view/632,,
633,,Stop 40P Hemming St - West side,,-34.772798872993, 138.608746000901,,http://www.adelaidemetro.com.au/stops/view/633,,
635,,Stop 47B Park Tce - North East side,,-34.7729933590624, 138.659131831372,,http://www.adelaidemetro.com.au/stops/view/635,,
637,,Stop 47B Park Tce - South West side,,-34.7729226391722, 138.658693250435,,http://www.adelaidemetro.com.au/stops/view/637,,
639,,Stop 47A Cross Keys Rd - West side,,-34.7732662310265, 138.647542704266,,http://www.adelaidemetro.com.au/stops/view/639,,
640,,Stop 42 Martins Rd - West side,,-34.7717650023262, 138.617077611417,,http://www.adelaidemetro.com.au/stops/view/640,,
641,,Stop 48 Main North Rd - East side,,-34.7724373269937, 138.664226511013,,http://www.adelaidemetro.com.au/stops/view/641,,
642,,Stop 42 Martins Rd - East side,,-34.7724108025873, 138.616743316933,,http://www.adelaidemetro.com.au/stops/view/642,,
643,,Stop 48 Main North Rd - West side,,-34.7724540725796, 138.663702177745,,http://www.adelaidemetro.com.au/stops/view/643,,
645,,Stop 39P Hemming St - East side,,-34.7741928603135, 138.608908503238,,http://www.adelaidemetro.com.au/stops/view/645,,
646,,Stop 39C Andrew Smith Dr - North side,,-34.772450063691, 138.605482579262,,http://www.adelaidemetro.com.au/stops/view/646,,
649,,Stop 39C Andrew Smith Dr - South side,,-34.7725765077651, 138.605643027959,,http://www.adelaidemetro.com.au/stops/view/649,,
650,,Stop 47A Park Tce - South West side,,-34.7742361280229, 138.660847657806,,http://www.adelaidemetro.com.au/stops/view/650,,
651,,Stop 47A Park Tce - North East side,,-34.77400876685, 138.660879067205,,http://www.adelaidemetro.com.au/stops/view/651,,
652,,Stop 47 Main North Rd - North West side,,-34.7737844582869, 138.662514166517,,http://www.adelaidemetro.com.au/stops/view/652,,
654,,Stop 39A Jamison St - North West side,,-34.7735323162622, 138.600241568237,,http://www.adelaidemetro.com.au/stops/view/654,,
655,,Stop 43 Salisbury Hwy - East side,,-34.7742451540585, 138.630980078933,,http://www.adelaidemetro.com.au/stops/view/655,,
656,,Stop 39A Jamison St - South side,,-34.7736626174751, 138.600241963822,,http://www.adelaidemetro.com.au/stops/view/656,,
657,,Stop 39B Jamison St - North East side,,-34.7744056689894, 138.602647051396,,http://www.adelaidemetro.com.au/stops/view/657,,
658,,Stop 39B Jamison St - South West side,,-34.7745045303907, 138.602728067137,,http://www.adelaidemetro.com.au/stops/view/658,,
659,,Stop 47 Cross Keys Rd - South side,,-34.7757489529488, 138.645497618219,,http://www.adelaidemetro.com.au/stops/view/659,,
661,,Stop 43 Salisbury Hwy - West side,,-34.7744073443068, 138.630477436312,,http://www.adelaidemetro.com.au/stops/view/661,,
662,,Stop 47 Cross Keys Rd - North West side,,-34.7753749049874, 138.645663254144,,http://www.adelaidemetro.com.au/stops/view/662,,
663,,Stop 47 Smith St - North side,,-34.7753078425558, 138.66293426954,,http://www.adelaidemetro.com.au/stops/view/663,,
664,,Stop 47 Smith St - South side,,-34.7752725241513, 138.662556028571,,http://www.adelaidemetro.com.au/stops/view/664,,
665,,Stop 71 The Golden Wy - West side,,-34.7754494821916, 138.715722938951,,http://www.adelaidemetro.com.au/stops/view/665,,
666,,Stop 45C Buckingham Dr - North East side,,-34.7755102158148, 138.671476061538,,http://www.adelaidemetro.com.au/stops/view/666,,
667,,Stop 45C Buckingham Dr - South West side,,-34.7753353846811, 138.671220929144,,http://www.adelaidemetro.com.au/stops/view/667,,
668,,Stop 40B Lavender Dr - South East side,,-34.776187718844, 138.618384730303,,http://www.adelaidemetro.com.au/stops/view/668,,
669,,Stop 47 Main North Rd - South East side,,-34.775433456862, 138.661542311838,,http://www.adelaidemetro.com.au/stops/view/669,,
671,,Stop 40B Lavender Dr - North West side,,-34.7758397563178, 138.618639868553,,http://www.adelaidemetro.com.au/stops/view/671,,
672,,Stop 46B Smith St - North side,,-34.7767614508447, 138.665261261372,,http://www.adelaidemetro.com.au/stops/view/672,,
673,,Stop 39 Whites Rd - East side,,-34.7752986170652, 138.598257355973,,http://www.adelaidemetro.com.au/stops/view/673,,
674,,Stop 42 Salisbury Hwy - West side,,-34.7758631569938, 138.629177206472,,http://www.adelaidemetro.com.au/stops/view/674,,
675,,Stop 39 Whites Rd - West side,,-34.7748959424818, 138.598450167161,,http://www.adelaidemetro.com.au/stops/view/675,,
676,,Stop 46B Smith St - South side,,-34.7771148949844, 138.665581597088,,http://www.adelaidemetro.com.au/stops/view/676,,
677,,Stop 46 Gloucester Rd - East side,,-34.7770377820765, 138.668127177269,,http://www.adelaidemetro.com.au/stops/view/677,,
678,,Stop 42 Salisbury Hwy - East side,,-34.7763583663098, 138.629088501568,,http://www.adelaidemetro.com.au/stops/view/678,,
679,,Stop 40 Lobelia Dr - North side,,-34.7786430483936, 138.614084746159,,http://www.adelaidemetro.com.au/stops/view/679,,
680,,Stop 46 Gloucester Rd - West side,,-34.7766394715862, 138.668277738721,,http://www.adelaidemetro.com.au/stops/view/680,,
682,,Stop 40A Lavender Dr - South East side,,-34.77758, 138.61564,,http://www.adelaidemetro.com.au/stops/view/682,,
683,,Stop 65 Victoria Rd - South West side,,-34.7770254038165, 138.489119602403,,http://www.adelaidemetro.com.au/stops/view/683,,
684,,Stop 45B Buckingham Dr - North East side,,-34.7785246176465, 138.674007713578,,http://www.adelaidemetro.com.au/stops/view/684,,
685,,Stop 45B Buckingham Dr - South West side,,-34.7784995724034, 138.673730722947,,http://www.adelaidemetro.com.au/stops/view/685,,
686,,Stop 46B Frost Rd - North side,,-34.7776353180483, 138.64527483747,,http://www.adelaidemetro.com.au/stops/view/686,,
687,,Stop 46B Frost Rd - South West side,,-34.777781189111, 138.645292561093,,http://www.adelaidemetro.com.au/stops/view/687,,
688,,Stop 38C Shepherdson Rd - North East side,,-34.7769657315704, 138.600355295839,,http://www.adelaidemetro.com.au/stops/view/688,,
689,,Stop 38C Shepherdson Rd - South West side,,-34.7770900199571, 138.600341591107,,http://www.adelaidemetro.com.au/stops/view/689,,
690,,Stop 41 Salisbury Hwy - South East side,,-34.7780080374725, 138.627610490418,,http://www.adelaidemetro.com.au/stops/view/690,,
691,,Stop 40A Lavender Dr - North West side,,-34.7767859556534, 138.616327904978,,http://www.adelaidemetro.com.au/stops/view/691,,
692,,Stop 66 The Golden Wy - South East side,,-34.7868415190282, 138.702896744165,,http://www.adelaidemetro.com.au/stops/view/692,,
693,,Stop 70 The Golden Wy - West side,,-34.7783728891714, 138.7120240733,,http://www.adelaidemetro.com.au/stops/view/693,,
694,,Stop 41 Salisbury Hwy - West side,,-34.7781789881905, 138.627106586473,,http://www.adelaidemetro.com.au/stops/view/694,,
696,,Stop 46 Main North Rd - North West side,,-34.7782975688795, 138.658476316809,,http://www.adelaidemetro.com.au/stops/view/696,,
697,,Stop 66 Oliver Rogers Dr - South East side,,-34.7784193207473, 138.483961859872,,http://www.adelaidemetro.com.au/stops/view/697,,
698,,Stop 46 Main North Rd - South East side,,-34.7786785876958, 138.658630136343,,http://www.adelaidemetro.com.au/stops/view/698,,
699,,Stop 40 Lobelia Dr - South side,,-34.7788641415108, 138.613054295855,,http://www.adelaidemetro.com.au/stops/view/699,,
702,,Stop 64A Victoria Rd - South West side,,-34.7788254057416, 138.492863644479,,http://www.adelaidemetro.com.au/stops/view/702,,
703,,Stop 69 The Golden Wy - East side,,-34.7810558678444, 138.709638974964,,http://www.adelaidemetro.com.au/stops/view/703,,
704,,Stop 46A Frost Rd - South West side,,-34.7789362657468, 138.647191849202,,http://www.adelaidemetro.com.au/stops/view/704,,
705,,Stop 46A Smith Rd - North side,,-34.7784797387345, 138.66807065549,,http://www.adelaidemetro.com.au/stops/view/705,,
706,,Stop 38B Shepherdson Rd - South side,,-34.7785839112573, 138.602797433893,,http://www.adelaidemetro.com.au/stops/view/706,,
707,,Stop 45A Bridge Rd - South East side,,-34.7802888584955, 138.673278955771,,http://www.adelaidemetro.com.au/stops/view/707,,
708,,Stop 38B Shepherdson Rd - North side,,-34.7785329781823, 138.602936331193,,http://www.adelaidemetro.com.au/stops/view/708,,
709,,Stop 46A Frost Rd - North East side,,-34.7790657215182, 138.647634706462,,http://www.adelaidemetro.com.au/stops/view/709,,
710,,Stop 45A Bridge Rd - North West side,,-34.78006083865, 138.673129237049,,http://www.adelaidemetro.com.au/stops/view/710,,
711,,Stop 69 The Golden Wy - West side,,-34.7809765344074, 138.70946243151,,http://www.adelaidemetro.com.au/stops/view/711,,
712,,Stop 46A Smith Rd - South side,,-34.7786093848392, 138.668029133708,,http://www.adelaidemetro.com.au/stops/view/712,,
713,,Stop 69 Atlantis Dr - South side,,-34.7799984265216, 138.708998472917,,http://www.adelaidemetro.com.au/stops/view/713,,
715,,Stop 38 Shepherdson Rd - North East side,,-34.7814857713648, 138.607792096207,,http://www.adelaidemetro.com.au/stops/view/715,,
716,,Stop 69 Atlantis Dr - North side,,-34.7800024627339, 138.709332936024,,http://www.adelaidemetro.com.au/stops/view/716,,
717,,Stop 68 Atlantis Dr - South East side,,-34.7801521879274, 138.706254403181,,http://www.adelaidemetro.com.au/stops/view/717,,
718,,Stop 64 Victoria Rd - South West side,,-34.7800366194549, 138.495432533081,,http://www.adelaidemetro.com.au/stops/view/718,,
719,,Stop 68 Atlantis Dr - North West side,,-34.7799592461846, 138.706730182941,,http://www.adelaidemetro.com.au/stops/view/719,,
720,,Stop 67 Atlantis Dr - East side,,-34.7805928777197, 138.702907800605,,http://www.adelaidemetro.com.au/stops/view/720,,
721,,Stop 38A Shepherdson Rd - North East side,,-34.7797206160591, 138.604913399802,,http://www.adelaidemetro.com.au/stops/view/721,,
722,,Stop 38A Shepherdson Rd - South West side,,-34.779773647366, 138.604718789679,,http://www.adelaidemetro.com.au/stops/view/722,,
724,,Stop 46 Frost Rd - South West side,,-34.78073, 138.65012,,http://www.adelaidemetro.com.au/stops/view/724,,
725,,Stop 40 Salisbury Hwy - East side,,-34.7810815365033, 138.624876118276,,http://www.adelaidemetro.com.au/stops/view/725,,
726,,Stop 46 Frost Rd - North East side,,-34.78059, 138.65013,,http://www.adelaidemetro.com.au/stops/view/726,,
727,,Stop 45 Bridge Rd - South East side,,-34.7823601801285, 138.671251078889,,http://www.adelaidemetro.com.au/stops/view/727,,
728,,Stop 45 Bridge Rd - North West side,,-34.7821963262194, 138.671088665002,,http://www.adelaidemetro.com.au/stops/view/728,,
729,,Stop 40 Salisbury Hwy - West side,,-34.7811559482537, 138.624447194541,,http://www.adelaidemetro.com.au/stops/view/729,,
730,,Stop 66 Atlantis Dr - East side,,-34.7827575844643, 138.70209726192,,http://www.adelaidemetro.com.au/stops/view/730,,
731,,Stop 67 Lady Ruthven Dr - North East side,,-34.7814263140013, 138.484778748247,,http://www.adelaidemetro.com.au/stops/view/731,,
733,,Stop 67 Atlantis Dr - West side,,-34.780281629537, 138.703272397965,,http://www.adelaidemetro.com.au/stops/view/733,,
735,,Stop 63 Victoria Rd - South West side,,-34.7820251195155, 138.499250224369,,http://www.adelaidemetro.com.au/stops/view/735,,
736,,Stop 37 Shepherdson Rd - North East side,,-34.7829565946219, 138.610183643074,,http://www.adelaidemetro.com.au/stops/view/736,,
737,,Stop 37 Shepherdson Rd - South West side,,-34.7830856040305, 138.610157149296,,http://www.adelaidemetro.com.au/stops/view/737,,
738,,Stop 45 Main North Rd - West side,,-34.7825036220273, 138.654711459886,,http://www.adelaidemetro.com.au/stops/view/738,,
739,,Stop 45A Frost Rd - South West side,,-34.7822052827888, 138.652506818923,,http://www.adelaidemetro.com.au/stops/view/739,,
740,,Stop 45A Frost Rd - North East side,,-34.7820204493469, 138.65247308772,,http://www.adelaidemetro.com.au/stops/view/740,,
742,,Stop 36C Oleander Dr - South East side,,-34.7844092927052, 138.61125536113,,http://www.adelaidemetro.com.au/stops/view/742,,
744,,Stop 39 Salisbury Hwy - East side,,-34.7832018552806, 138.622985744482,,http://www.adelaidemetro.com.au/stops/view/744,,
745,,Stop 68 The Golden Wy - North West side,,-34.783891297024, 138.707747458668,,http://www.adelaidemetro.com.au/stops/view/745,,
746,,Stop 68 Lady Ruthven Dr - North East side,,-34.78308, 138.48843,,http://www.adelaidemetro.com.au/stops/view/746,,
747,,Stop 44B Bridge Rd - East side,,-34.7841690606586, 138.669436931132,,http://www.adelaidemetro.com.au/stops/view/747,,
748,,Stop 44B Bridge Rd - West side,,-34.7842129186576, 138.66920516353,,http://www.adelaidemetro.com.au/stops/view/748,,
749,,Stop 39 Salisbury Hwy - West side,,-34.78307, 138.6228,,http://www.adelaidemetro.com.au/stops/view/749,,
751,,Stop 36C Oleander Dr - North West side,,-34.784370310627, 138.611119439968,,http://www.adelaidemetro.com.au/stops/view/751,,
752,,Stop 68 The Golden Wy - East side,,-34.78326, 138.70854,,http://www.adelaidemetro.com.au/stops/view/752,,
753,,Stop 45 Main North Rd - East side,,-34.7841650788816, 138.653690204531,,http://www.adelaidemetro.com.au/stops/view/753,,
754,,Stop 45 Clayson Rd - North East side,,-34.78369, 138.65529,,http://www.adelaidemetro.com.au/stops/view/754,,
755,,Stop 65 Atlantis Dr - East side,,-34.7858, 138.69958,,http://www.adelaidemetro.com.au/stops/view/755,,
756,,Stop 66 Atlantis Dr - West side,,-34.78315, 138.70186,,http://www.adelaidemetro.com.au/stops/view/756,,
757,,Stop 45 Clayson Rd - South West side,,-34.78391, 138.65542,,http://www.adelaidemetro.com.au/stops/view/757,,
758,,Stop 58 John Rd - North side,,-34.78435, 138.71409,,http://www.adelaidemetro.com.au/stops/view/758,,
759,,Stop 58 John Rd - South side,,-34.78463, 138.71398,,http://www.adelaidemetro.com.au/stops/view/759,,
760,,Stop 67 The Golden Wy - South East side,,-34.78484, 138.70703,,http://www.adelaidemetro.com.au/stops/view/760,,
761,,Stop 38 Salisbury Hwy - North West side,,-34.78468, 138.6213,,http://www.adelaidemetro.com.au/stops/view/761,,
762,,Stop 44A Bridge Rd - East side,,-34.7863081992164, 138.6675182651,,http://www.adelaidemetro.com.au/stops/view/762,,
765,,Stop 36B Oleander Dr - South East side,,-34.78663, 138.60974,,http://www.adelaidemetro.com.au/stops/view/765,,
766,,Stop 44A Bridge Rd - West side,,-34.786717541613, 138.666961300432,,http://www.adelaidemetro.com.au/stops/view/766,,
767,,Stop 36B Oleander Dr - North West side,,-34.78676, 138.60948,,http://www.adelaidemetro.com.au/stops/view/767,,
768,,Stop 38 Salisbury Hwy - South East side,,-34.7856250077489, 138.620829952635,,http://www.adelaidemetro.com.au/stops/view/768,,
769,,Stop 62 Victoria Rd - West side,,-34.78559, 138.50122,,http://www.adelaidemetro.com.au/stops/view/769,,
770,,Stop 44D Northbri Av - East side,,-34.785, 138.65657,,http://www.adelaidemetro.com.au/stops/view/770,,
771,,Stop 57 John Rd - South side,,-34.78568, 138.71616,,http://www.adelaidemetro.com.au/stops/view/771,,
772,,Stop 57 John Rd - North side,,-34.78569, 138.71639,,http://www.adelaidemetro.com.au/stops/view/772,,
774,,Stop 69 Lady Gowrie Dr - East side,,-34.78613, 138.4899,,http://www.adelaidemetro.com.au/stops/view/774,,
775,,Stop 59 Bicentenial Dr - East side,,-34.78507, 138.7124,,http://www.adelaidemetro.com.au/stops/view/775,,
776,,Stop 59 Bicentenial Dr - West side,,-34.78496, 138.7124,,http://www.adelaidemetro.com.au/stops/view/776,,
778,,Stop 66 The Golden Wy - North West side,,-34.78653, 138.70294,,http://www.adelaidemetro.com.au/stops/view/778,,
779,,Stop 62 The Grove Wy - North East side,,-34.79365, 138.69865,,http://www.adelaidemetro.com.au/stops/view/779,,
780,,Stop 44D Northbri Av - West side,,-34.78501, 138.65633,,http://www.adelaidemetro.com.au/stops/view/780,,
781,,Stop 65 Atlantis Dr - West side,,-34.78542, 138.69976,,http://www.adelaidemetro.com.au/stops/view/781,,
782,,Stop 64 Atlantis Dr - East side,,-34.7878006549414, 138.698425750215,,http://www.adelaidemetro.com.au/stops/view/782,,
783,,Stop 59A Bicentenial Dr - South East side,,-34.78712, 138.70912,,http://www.adelaidemetro.com.au/stops/view/783,,
784,,Stop 59A Bicentenial Dr - North West side,,-34.78676, 138.70973,,http://www.adelaidemetro.com.au/stops/view/784,,
785,,Stop 44 Main North Rd - West side,,-34.78726, 138.65049,,http://www.adelaidemetro.com.au/stops/view/785,,
786,,Stop 56 Golden Grove Rd - North West side,,-34.78753, 138.71552,,http://www.adelaidemetro.com.au/stops/view/786,,
787,,Stop 71 The Golden Wy - South East side,,-34.77522, 138.71616,,http://www.adelaidemetro.com.au/stops/view/787,,
788,,Stop 44 Bridge Rd - East side,,-34.7891456431041, 138.66499001997,,http://www.adelaidemetro.com.au/stops/view/788,,
789,,Stop 44 Main North Rd - East side,,-34.78776, 138.65057,,http://www.adelaidemetro.com.au/stops/view/789,,
790,,Stop 37 Salisbury Hwy - South East side,,-34.78778, 138.61892,,http://www.adelaidemetro.com.au/stops/view/790,,
791,,Stop 56 Golden Grove Rd - South East side,,-34.787711, 138.71565,,http://www.adelaidemetro.com.au/stops/view/791,,
792,,Stop 65 The Golden Wy - North West side,,-34.78849, 138.70109,,http://www.adelaidemetro.com.au/stops/view/792,,
793,,Stop 44 Bridge Rd - West side,,-34.789142215908, 138.664783550077,,http://www.adelaidemetro.com.au/stops/view/793,,
794,,Stop 36A Oleander Dr - East side,,-34.78889, 138.60783,,http://www.adelaidemetro.com.au/stops/view/794,,
795,,Stop 70 Lady Gowrie Dr - East side,,-34.78806, 138.49005,,http://www.adelaidemetro.com.au/stops/view/795,,
797,,Stop 60 Bicentenial Dr - North West side,,-34.78762, 138.70698,,http://www.adelaidemetro.com.au/stops/view/797,,
798,,Stop 36A Oleander Dr - West side,,-34.79008, 138.60712,,http://www.adelaidemetro.com.au/stops/view/798,,
799,,Stop 64 Atlantis Dr - West side,,-34.78774, 138.6983,,http://www.adelaidemetro.com.au/stops/view/799,,
800,,Stop 65 The Golden Wy - East side,,-34.78821, 138.70164,,http://www.adelaidemetro.com.au/stops/view/800,,
801,,Stop 37 Salisbury Hwy - North West side,,-34.7886442245883, 138.617750924141,,http://www.adelaidemetro.com.au/stops/view/801,,
802,,Stop 61 Victoria Rd - West side,,-34.78892, 138.50134,,http://www.adelaidemetro.com.au/stops/view/802,,
804,,Stop 44C Northbri Av - West side,,-34.78744, 138.65517,,http://www.adelaidemetro.com.au/stops/view/804,,
805,,Stop 60A Bicentenial Dr - South East side,,-34.78889, 138.70547,,http://www.adelaidemetro.com.au/stops/view/805,,
806,,Stop 60A Bicentenial Dr - North West side,,-34.78896, 138.70524,,http://www.adelaidemetro.com.au/stops/view/806,,
807,,Stop 43 Main North Rd - West side,,-34.78951, 138.6488,,http://www.adelaidemetro.com.au/stops/view/807,,
808,,Stop 43 Main North Rd - East side,,-34.7896974133494, 138.649077566766,,http://www.adelaidemetro.com.au/stops/view/808,,
809,,Stop 71 Lady Gowrie Dr - East side,,-34.78964, 138.49042,,http://www.adelaidemetro.com.au/stops/view/809,,
810,,Stop 64 The Golden Wy - North side,,-34.79011, 138.69834,,http://www.adelaidemetro.com.au/stops/view/810,,
812,,Stop 64 The Golden Wy - South East side,,-34.79007, 138.69923,,http://www.adelaidemetro.com.au/stops/view/812,,
814,,Stop 43D Bridge Rd - West side,,-34.79181, 138.66241,,http://www.adelaidemetro.com.au/stops/view/814,,
815,,Stop 55 Golden Grove Rd - South East side,,-34.79079, 138.71282,,http://www.adelaidemetro.com.au/stops/view/815,,
816,,Stop 55 Golden Grove Rd - West side,,-34.79055, 138.71285,,http://www.adelaidemetro.com.au/stops/view/816,,
818,,Stop 43D Bridge Rd - East side,,-34.79214, 138.66231,,http://www.adelaidemetro.com.au/stops/view/818,,
819,,Zone D Golden Grove Village Interchange,,-34.79081, 138.69355,,http://www.adelaidemetro.com.au/stops/view/819,,
820,,Stop 44B Northbri Av - West side,,-34.7904, 138.65435,,http://www.adelaidemetro.com.au/stops/view/820,,
821,,Zone A Golden Grove Village Interchange,,-34.790964, 138.693461,,http://www.adelaidemetro.com.au/stops/view/821,,
822,,Zone E Golden Grove Village Interchange,,-34.790961, 138.693383,,http://www.adelaidemetro.com.au/stops/view/822,,
823,,Zone C Golden Grove Village Interchange,,-34.790885, 138.693367,,http://www.adelaidemetro.com.au/stops/view/823,,
824,,Zone B Golden Grove Village Interchange,,-34.790917, 138.693592,,http://www.adelaidemetro.com.au/stops/view/824,,
826,,Stop 36 Oleander Dr - North West side,,-34.79235, 138.60592,,http://www.adelaidemetro.com.au/stops/view/826,,
828,,Stop 36 Oleander Dr - South East side,,-34.79209, 138.6064,,http://www.adelaidemetro.com.au/stops/view/828,,
831,,Stop 36 Salisbury Hwy - South East side,,-34.7916382538404, 138.615434962904,,http://www.adelaidemetro.com.au/stops/view/831,,
832,,Stop 36 Salisbury Hwy - North West side,,-34.7914268953926, 138.615246967384,,http://www.adelaidemetro.com.au/stops/view/832,,
833,,Stop 60A Osborne Rd - North side,,-34.79177, 138.49982,,http://www.adelaidemetro.com.au/stops/view/833,,
834,,Stop 44A Northbri Av - East side,,-34.79216, 138.65281,,http://www.adelaidemetro.com.au/stops/view/834,,
835,,Stop 44A Northbri Av - West side,,-34.791932, 138.65293,,http://www.adelaidemetro.com.au/stops/view/835,,
839,,Stop 54 Golden Grove Rd - South East side,,-34.79255, 138.71121,,http://www.adelaidemetro.com.au/stops/view/839,,
841,,Stop 54 Golden Grove Rd - North West side,,-34.79246, 138.7111,,http://www.adelaidemetro.com.au/stops/view/841,,
842,,Stop 43C Bridge Rd - West side,,-34.7939338115761, 138.660510036566,,http://www.adelaidemetro.com.au/stops/view/842,,
843,,Stop 43C Bridge Rd - East side,,-34.79358, 138.66101,,http://www.adelaidemetro.com.au/stops/view/843,,
844,,Stop 59 Military Rd - West side,,-34.79319, 138.49656,,http://www.adelaidemetro.com.au/stops/view/844,,
845,,Stop 44 Northbri Av - South East side,,-34.79345, 138.65111,,http://www.adelaidemetro.com.au/stops/view/845,,
846,,Stop 35 Salisbury Hwy - South East side,,-34.7933009790275, 138.613951441609,,http://www.adelaidemetro.com.au/stops/view/846,,
847,,Stop 59 Military Rd - East side,,-34.79333, 138.49679,,http://www.adelaidemetro.com.au/stops/view/847,,
848,,Stop 35 Salisbury Hwy - North West side,,-34.79319, 138.61368,,http://www.adelaidemetro.com.au/stops/view/848,,
849,,Stop 44 Northbri Av - North West side,,-34.793481, 138.650846,,http://www.adelaidemetro.com.au/stops/view/849,,
853,,Stop 60 Victoria Rd - East side,,-34.7937463361044, 138.501625469143,,http://www.adelaidemetro.com.au/stops/view/853,,
854,,Stop 60 Victoria Rd - West side,,-34.7939439923621, 138.501292609683,,http://www.adelaidemetro.com.au/stops/view/854,,
855,,Stop 41 Main North Rd - West side,,-34.7938408885591, 138.644890624728,,http://www.adelaidemetro.com.au/stops/view/855,,
856,,Stop 41 Main North Rd - East side,,-34.7939305982983, 138.645299672509,,http://www.adelaidemetro.com.au/stops/view/856,,
857,,Stop 65 Yatala Vale Rd - North side,,-34.79471, 138.7297,,http://www.adelaidemetro.com.au/stops/view/857,,
858,,Stop 66 Yatala Vale Rd - North side,,-34.79433, 138.72667,,http://www.adelaidemetro.com.au/stops/view/858,,
859,,Stop 66 Yatala Vale Rd - South side,,-34.79451, 138.7265,,http://www.adelaidemetro.com.au/stops/view/859,,
860,,Stop 43C Mcintyre Rd - North side,,-34.79542, 138.65306,,http://www.adelaidemetro.com.au/stops/view/860,,
861,,Stop 65 Yatala Vale Rd - South side,,-34.79523, 138.7305,,http://www.adelaidemetro.com.au/stops/view/861,,
862,,Stop 53 Golden Grove Rd - West side,,-34.79472, 138.70919,,http://www.adelaidemetro.com.au/stops/view/862,,
863,,Stop 62 The Golden Wy - East side,,-34.79489, 138.68965,,http://www.adelaidemetro.com.au/stops/view/863,,
864,,Stop 67 Yatala Vale Rd - North side,,-34.79447, 138.7232,,http://www.adelaidemetro.com.au/stops/view/864,,
865,,Stop 67 Yatala Vale Rd - South side,,-34.79463, 138.72338,,http://www.adelaidemetro.com.au/stops/view/865,,
868,,Stop 68 Yatala Vale Rd - North side,,-34.79486, 138.71865,,http://www.adelaidemetro.com.au/stops/view/868,,
869,,Stop 43B Bridge Rd - West side,,-34.7964684741511, 138.65829664014,,http://www.adelaidemetro.com.au/stops/view/869,,
871,,Stop 68 Yatala Vale Rd - South side,,-34.79511, 138.71857,,http://www.adelaidemetro.com.au/stops/view/871,,
872,,Stop 43C Mcintyre Rd - South side,,-34.79522, 138.65245,,http://www.adelaidemetro.com.au/stops/view/872,,
873,,Stop 43B Bridge Rd - East side,,-34.7966173263723, 138.658496215831,,http://www.adelaidemetro.com.au/stops/view/873,,
874,,Stop 64 Yatala Vale Rd - North side,,-34.79608, 138.7329,,http://www.adelaidemetro.com.au/stops/view/874,,
875,,Stop 34R Salisbury Hwy - South East side,,-34.79556, 138.61193,,http://www.adelaidemetro.com.au/stops/view/875,,
876,,Stop 34R Salisbury Hwy - North West side,,-34.79542, 138.61172,,http://www.adelaidemetro.com.au/stops/view/876,,
877,,Stop 62 The Golden Wy - West side,,-34.79562, 138.68813,,http://www.adelaidemetro.com.au/stops/view/877,,
878,,Stop 64 Yatala Vale Rd - South side,,-34.7957, 138.73165,,http://www.adelaidemetro.com.au/stops/view/878,,
881,,Stop 59 Victoria Rd - East side,,-34.796007925052, 138.501605995455,,http://www.adelaidemetro.com.au/stops/view/881,,
883,,Stop 43B Mcintyre Rd - South side,,-34.79699, 138.65525,,http://www.adelaidemetro.com.au/stops/view/883,,
884,,Surrey Farm Dr - Pedare College School Bus Stop,,-34.79622, 138.6935,,http://www.adelaidemetro.com.au/stops/view/884,,
885,,Stop 40 Main North Rd - West side,,-34.7963, 138.6427,,http://www.adelaidemetro.com.au/stops/view/885,,
888,,Stop 59 Victoria Rd - West side,,-34.7964902111869, 138.501253684201,,http://www.adelaidemetro.com.au/stops/view/888,,
889,,Stop 53 Golden Grove Rd - East side,,-34.79644, 138.70833,,http://www.adelaidemetro.com.au/stops/view/889,,
890,,Surrey Farm Dr - Gleeson College School Bus Stop,,-34.7964, 138.69674,,http://www.adelaidemetro.com.au/stops/view/890,,
892,,Stop 40 Main North Rd - East side,,-34.79686, 138.64274,,http://www.adelaidemetro.com.au/stops/view/892,,
893,,Stop 58 Military Rd - West side,,-34.79688, 138.49649,,http://www.adelaidemetro.com.au/stops/view/893,,
894,,Stop 60 Wynn Vale Dr - North side,,-34.79692, 138.68268,,http://www.adelaidemetro.com.au/stops/view/894,,
895,,Stop 60 Wynn Vale Dr - South side,,-34.79699, 138.68304,,http://www.adelaidemetro.com.au/stops/view/895,,
897,,Stop 58 Military Rd - East side,,-34.79707, 138.49676,,http://www.adelaidemetro.com.au/stops/view/897,,
898,,Stop 61 Wynn Vale Dr - South side,,-34.79721, 138.68564,,http://www.adelaidemetro.com.au/stops/view/898,,
899,,Stop 59 Hancock Rd - West side,,-34.79686, 138.71678,,http://www.adelaidemetro.com.au/stops/view/899,,
900,,Stop 59 Avalon Dr - North East side,,-34.79853, 138.69335,,http://www.adelaidemetro.com.au/stops/view/900,,
901,,Stop 61 Wynn Vale Dr - North side,,-34.7972, 138.68617,,http://www.adelaidemetro.com.au/stops/view/901,,
902,,Stop 52 Golden Grove Rd - West side,,-34.79727, 138.7077,,http://www.adelaidemetro.com.au/stops/view/902,,
903,,Stop 59 Hancock Rd - East side,,-34.7963935133106, 138.716991077932,,http://www.adelaidemetro.com.au/stops/view/903,,
904,,Stop 63B Yatala Vale Rd - North side,,-34.79736, 138.73624,,http://www.adelaidemetro.com.au/stops/view/904,,
905,,Stop 63B Yatala Vale Rd - South side,,-34.79725, 138.73553,,http://www.adelaidemetro.com.au/stops/view/905,,
906,,Stop 59 Avalon Dr - South West side,,-34.7986168537471, 138.693261410177,,http://www.adelaidemetro.com.au/stops/view/906,,
907,,Stop 59 Wynn Vale Dr - North side,,-34.79782, 138.67972,,http://www.adelaidemetro.com.au/stops/view/907,,
908,,Stop 59 Wynn Vale Dr - South side,,-34.7979, 138.67987,,http://www.adelaidemetro.com.au/stops/view/908,,
910,,Stop 58 Wynn Vale Dr - North side,,-34.79783, 138.67717,,http://www.adelaidemetro.com.au/stops/view/910,,
911,,Stop 58 Wynn Vale Dr - South side,,-34.79793, 138.67684,,http://www.adelaidemetro.com.au/stops/view/911,,
913,,Stop 52 Golden Grove Rd - East side,,-34.79816, 138.70731,,http://www.adelaidemetro.com.au/stops/view/913,,
914,,Stop 63A Katarama Rd - North West side,,-34.79895, 138.735678,,http://www.adelaidemetro.com.au/stops/view/914,,
916,,Stop 63A Katarama Rd - South East side,,-34.79907, 138.73541,,http://www.adelaidemetro.com.au/stops/view/916,,
917,,Stop 58 Victoria Rd - East side,,-34.79897, 138.50161,,http://www.adelaidemetro.com.au/stops/view/917,,
918,,Stop 63 Katarama Rd - North West side,,-34.79907, 138.73299,,http://www.adelaidemetro.com.au/stops/view/918,,
919,,Stop 58 Victoria Rd - West side,,-34.7989619961723, 138.501258890465,,http://www.adelaidemetro.com.au/stops/view/919,,
920,,Stop 62 Katarama Rd - North side,,-34.79915, 138.72992,,http://www.adelaidemetro.com.au/stops/view/920,,
921,,Stop 62 Katarama Rd - South side,,-34.79918, 138.72975,,http://www.adelaidemetro.com.au/stops/view/921,,
922,,Stop 58 Richardson Rd - South East side,,-34.8002304754638, 138.693470419862,,http://www.adelaidemetro.com.au/stops/view/922,,
923,,Stop 57 Keithcote Farm Dr - West side,,-34.79935, 138.67583,,http://www.adelaidemetro.com.au/stops/view/923,,
925,,Stop 58 Hancock Rd - East side,,-34.7987340090167, 138.717149831599,,http://www.adelaidemetro.com.au/stops/view/925,,
926,,Stop 58 Hancock Rd - West side,,-34.7987327850599, 138.716906858629,,http://www.adelaidemetro.com.au/stops/view/926,,
927,,Stop 39 Main North Rd - East side,,-34.79965, 138.6401,,http://www.adelaidemetro.com.au/stops/view/927,,
928,,Stop 58 Richardson Rd - North West side,,-34.80003, 138.69359,,http://www.adelaidemetro.com.au/stops/view/928,,
929,,Stop 43 Bridge Rd - East side,,-34.79941, 138.656,,http://www.adelaidemetro.com.au/stops/view/929,,
930,,Stop 39 Main North Rd - West side,,-34.79996, 138.63945,,http://www.adelaidemetro.com.au/stops/view/930,,
931,,Stop 57 Keithcote Farm Dr - East side,,-34.8000086754767, 138.676127048703,,http://www.adelaidemetro.com.au/stops/view/931,,
932,,Stop 61 Hamilton Rd - East side,,-34.80096, 138.73098,,http://www.adelaidemetro.com.au/stops/view/932,,
933,,Stop 51 Golden Grove Rd - East side,,-34.80014, 138.70612,,http://www.adelaidemetro.com.au/stops/view/933,,
934,,Stop 61 Hamilton Rd - West side,,-34.80122, 138.73085,,http://www.adelaidemetro.com.au/stops/view/934,,
936,,Stop 57 Military Rd - West side,,-34.80059, 138.49645,,http://www.adelaidemetro.com.au/stops/view/936,,
937,,Stop 57 Victoria Rd - East side,,-34.80082, 138.50161,,http://www.adelaidemetro.com.au/stops/view/937,,
938,,Stop 57 Richardson Dr - North West side,,-34.8007932015763, 138.68963693127,,http://www.adelaidemetro.com.au/stops/view/938,,
939,,Stop 57 Richardson Dr - South East side,,-34.8008247719634, 138.689846876488,,http://www.adelaidemetro.com.au/stops/view/939,,
940,,Stop 51 Golden Grove Rd - West side,,-34.80057, 138.7057,,http://www.adelaidemetro.com.au/stops/view/940,,
941,,Stop 57 Military Rd - East side,,-34.80077, 138.49678,,http://www.adelaidemetro.com.au/stops/view/941,,
942,,Stop 43 Bridge Rd - West side,,-34.7993107998802, 138.655828800811,,http://www.adelaidemetro.com.au/stops/view/942,,
944,,Stop 57 Victoria Rd - West side,,-34.8013442650945, 138.501241165006,,http://www.adelaidemetro.com.au/stops/view/944,,
945,,Stop 56 Keithcote Farm Dr - South side,,-34.80156, 138.67878,,http://www.adelaidemetro.com.au/stops/view/945,,
946,,Stop 56 Richardson Dr - East side,,-34.8029183237464, 138.687437297838,,http://www.adelaidemetro.com.au/stops/view/946,,
947,,Stop 56 Keithcote Farm Dr - North side,,-34.80159, 138.67965,,http://www.adelaidemetro.com.au/stops/view/947,,
948,,Stop 57 Hancock Rd - East side,,-34.8022063668641, 138.717447275689,,http://www.adelaidemetro.com.au/stops/view/948,,
949,,Stop 57 Hancock Rd - West side,,-34.8023528678906, 138.717185224874,,http://www.adelaidemetro.com.au/stops/view/949,,
950,,Stop 62 Illyarrie Av - South East side,,-34.8019825801172, 138.710926559552,,http://www.adelaidemetro.com.au/stops/view/950,,
952,,Stop 62 Illyarrie Av - North side,,-34.80185, 138.7098,,http://www.adelaidemetro.com.au/stops/view/952,,
953,,Stop 61 Illyarrie Av - North side,,-34.8019947548297, 138.708530738607,,http://www.adelaidemetro.com.au/stops/view/953,,
954,,Stop 61 Illyarrie Av - South side,,-34.8020501950436, 138.709137070427,,http://www.adelaidemetro.com.au/stops/view/954,,
955,,Stop 56 Richardson Dr - West side,,-34.802948907217, 138.687290106471,,http://www.adelaidemetro.com.au/stops/view/955,,
956,,Stop 42A Bridge Rd - East side,,-34.80222, 138.65349,,http://www.adelaidemetro.com.au/stops/view/956,,
957,,Stop 55 Hillendale Dr - West side,,-34.80286, 138.68095,,http://www.adelaidemetro.com.au/stops/view/957,,
958,,Stop 42A Bridge Rd - West side,,-34.8018055829681, 138.65359703114,,http://www.adelaidemetro.com.au/stops/view/958,,
959,,Stop 60 Hamilton Rd - East side,,-34.80476, 138.73145,,http://www.adelaidemetro.com.au/stops/view/959,,
960,,Stop 55 Hillendale Dr - East side,,-34.80317, 138.68082,,http://www.adelaidemetro.com.au/stops/view/960,,
961,,Stop 60 Hamilton Rd - West side,,-34.8045, 138.73128,,http://www.adelaidemetro.com.au/stops/view/961,,
962,,Stop 56 Victoria Rd - West side,,-34.80307, 138.50126,,http://www.adelaidemetro.com.au/stops/view/962,,
963,,Stop 56 Hancock Rd - East side,,-34.80506, 138.71763,,http://www.adelaidemetro.com.au/stops/view/963,,
964,,Stop 56 Victoria Rd - East side,,-34.8034575205769, 138.501574826719,,http://www.adelaidemetro.com.au/stops/view/964,,
965,,Stop 56 Hancock Rd - West side,,-34.8044834567233, 138.717335329871,,http://www.adelaidemetro.com.au/stops/view/965,,
