stop_id,stop_code,stop_name,stop_desc,stop_lat,stop_lon,zone_id,stop_url,location_type,parent_station,stop_timezone,wheelchair_boarding
1,10001,Stop 92 Alawoona Rd - North West side,,-34.66091,138.70355,,http://www.adelaidemetro.com.au/stops/view/10001,,,,
8,10008,Stop 90 Carcoola Rd - North West side,,-34.6642793681353,138.703834169303,,http://www.adelaidemetro.com.au/stops/view/10008,,,,
9,10009,Stop 94 Alawoona Rd - North West side,,-34.66635,138.69789,,http://www.adelaidemetro.com.au/stops/view/10009,,,,
15,10015,Stop 73 Old Port Wakefield Rd - East side,,-34.66772,138.56094,,http://www.adelaidemetro.com.au/stops/view/10015,,,,
16,10016,Stop 76 President Av - East side,,-34.66773,138.668,,http://www.adelaidemetro.com.au/stops/view/10016,,,,
23,10023,Stop 77 Curtis Rd - South West side,,-34.66923,138.67267,,http://www.adelaidemetro.com.au/stops/view/10023,,,,
24,10024,Stop 87 Maltarra Rd - North West side,,-34.6686865135038,138.701007990289,,http://www.adelaidemetro.com.au/stops/view/10024,,,,
31,10031,Stop 71 Old Port Wakefield Rd - East side,,-34.675248639843,138.563327338503,,http://www.adelaidemetro.com.au/stops/view/10031,,,,
32,10032,Stop 86 Maltarra Rd - South East side,,-34.6708523725428,138.700267018916,,http://www.adelaidemetro.com.au/stops/view/10032,,,,
39,10039,Stop 78B Peachey Rd - East side,,-34.6740248317118,138.678112737422,,http://www.adelaidemetro.com.au/stops/view/10039,,,,
40,10040,Stop 84 Maltarra Rd - South East side,,-34.6753047071171,138.697408829863,,http://www.adelaidemetro.com.au/stops/view/10040,,,,
47,10047,Stop 70 Old Port Wakefield Rd - North East side,,-34.6811640623665,138.565240291879,,http://www.adelaidemetro.com.au/stops/view/10047,,,,
76,10069,Stop 79J Coventry Rd - North West side,,-34.6830780297123,138.679170387892,,http://www.adelaidemetro.com.au/stops/view/10069,,,,
77,10070,Stop 69 Old Port Wakefield Rd - West side,,-34.6860981853233,138.566874067988,,http://www.adelaidemetro.com.au/stops/view/10070,,,,
85,10078,Stop 76 Whitington Rd - South side,,-34.6856175686502,138.675452984669,,http://www.adelaidemetro.com.au/stops/view/10078,,,,
97,10089,Stop 74 Peachey Rd - East side,,-34.6872956395189,138.670305551167,,http://www.adelaidemetro.com.au/stops/view/10089,,,,
98,10090,Stop 74 Peachey Rd - West side,,-34.6872773000216,138.669983606948,,http://www.adelaidemetro.com.au/stops/view/10090,,,,
106,10098,Stop 89 Park Lake Bvd - South East side,,-34.6837693368592,138.701480291072,,http://www.adelaidemetro.com.au/stops/view/10098,,,,
112,10104,Stop 73 Peachey Rd - North West side,,-34.6898184263157,138.669282662674,,http://www.adelaidemetro.com.au/stops/view/10104,,,,
113,10105,Stop 68 Port Wakefield Rd - South West side,,-34.696397175505,138.569929165493,,http://www.adelaidemetro.com.au/stops/view/10105,,,,
120,10112,Stop 76F Adams Rd - East side,,-34.6938697853478,138.708490069337,,http://www.adelaidemetro.com.au/stops/view/10112,,,,
121,10113,Stop 72 Peachey Rd - West side,,-34.6923449639854,138.667681393794,,http://www.adelaidemetro.com.au/stops/view/10113,,,,
128,10120,Stop 71 Fordingbridge Rd - North side,,-34.6959327140968,138.666065567206,,http://www.adelaidemetro.com.au/stops/view/10120,,,,
129,10121,Stop 71 Fordingbridge Rd - South side,,-34.696,138.66555,,http://www.adelaidemetro.com.au/stops/view/10121,,,,
136,10128,Stop 70A Easton Av - East side,,-34.695961944923,138.662345596287,,http://www.adelaidemetro.com.au/stops/view/10128,,,,
137,10129,Stop 76B Hanson Rd - North West side,,-34.6961111890222,138.699584018611,,http://www.adelaidemetro.com.au/stops/view/10129,,,,
143,10135,Stop 74 Hamblynn Rd - South East side,,-34.6990313157624,138.691366468273,,http://www.adelaidemetro.com.au/stops/view/10135,,,,
144,10136,Stop 74 Hamblynn Rd - North West side,,-34.69933,138.69098,,http://www.adelaidemetro.com.au/stops/view/10136,,,,
151,10143,Stop 70 Easton Av - West side,,-34.69877,138.66119,,http://www.adelaidemetro.com.au/stops/view/10143,,,,
152,10144,Stop 71 Woodford Rd - North West side,,-34.6983910425496,138.678984587557,,http://www.adelaidemetro.com.au/stops/view/10144,,,,
159,10151,Stop 76 Hanson Rd - South East side,,-34.70083,138.69633,,http://www.adelaidemetro.com.au/stops/view/10151,,,,
160,10152,Stop 68 Peachey Rd - West side,,-34.7036290347398,138.663550824573,,http://www.adelaidemetro.com.au/stops/view/10152,,,,
167,10159,Stop 75 Campbell Rd - North East side,,-34.7025670988431,138.695651955497,,http://www.adelaidemetro.com.au/stops/view/10159,,,,
168,10160,Stop 75 Campbell Rd - South West side,,-34.702431538947,138.695268802095,,http://www.adelaidemetro.com.au/stops/view/10160,,,,
174,10166,Stop 74 Campbell Rd - South West side,,-34.7042562762704,138.697189076254,,http://www.adelaidemetro.com.au/stops/view/10166,,,,
175,10167,Stop 69 Woodford Rd - East side,,-34.7043765996229,138.674876848188,,http://www.adelaidemetro.com.au/stops/view/10167,,,,
182,10174,Stop 72 Yorktown Rd - North West side,,-34.7071858988508,138.69411429129,,http://www.adelaidemetro.com.au/stops/view/10174,,,,
183,10175,Stop 71 Yorktown Rd - North side,,-34.70706095254,138.689991235894,,http://www.adelaidemetro.com.au/stops/view/10175,,,,
190,10182,Stop 73 Yorktown Rd - North West side,,-34.70748,138.69698,,http://www.adelaidemetro.com.au/stops/view/10182,,,,
191,10183,Stop 73 Yorktown Rd - South East side,,-34.7076383682418,138.696828195965,,http://www.adelaidemetro.com.au/stops/view/10183,,,,
198,10190,Stop 75 Turner Dr - East side,,-34.70866,138.70482,,http://www.adelaidemetro.com.au/stops/view/10190,,,,
199,10191,Stop 68 Yorktown Rd - East side,,-34.7100755982673,138.684091011714,,http://www.adelaidemetro.com.au/stops/view/10191,,,,
205,10197,Stop 67 Woodford Rd - North West side,,-34.709892587695,138.672486942172,,http://www.adelaidemetro.com.au/stops/view/10197,,,,
206,10198,Stop 67 Yorktown Rd - West side,,-34.7119219999854,138.682565167112,,http://www.adelaidemetro.com.au/stops/view/10198,,,,
213,10205,Stop 67 Yorktown Rd - East side,,-34.71267,138.68258,,http://www.adelaidemetro.com.au/stops/view/10205,,,,
214,10206,Stop 69 Midway Rd - West side,,-34.71281,138.689,,http://www.adelaidemetro.com.au/stops/view/10206,,,,
221,10213,Stop 66 Yorktown Rd - West side,,-34.71471,138.68128,,http://www.adelaidemetro.com.au/stops/view/10213,,,,
222,10214,Stop 66 Yorktown Rd - East side,,-34.7148013717875,138.681586537033,,http://www.adelaidemetro.com.au/stops/view/10214,,,,
229,10221,Stop 68 Midway Rd - East side,,-34.71652,138.68679,,http://www.adelaidemetro.com.au/stops/view/10221,,,,
230,10222,Zone D Elizabeth City Centre - North West side,,-34.716794,138.667855,,http://www.adelaidemetro.com.au/stops/view/10222,,,,
236,10228,Zone A Elizabeth Interchange,,-34.717058,138.66515,,http://www.adelaidemetro.com.au/stops/view/10228,,,,
244,10236,Stop 64A Yorktown Rd - North side,,-34.71902,138.67533,,http://www.adelaidemetro.com.au/stops/view/10236,,,,
245,10237,Stop 64B Playford Bvd - East side,,-34.718559,138.671167,,http://www.adelaidemetro.com.au/stops/view/10237,,,,
250,10241,Stop 63 Kinkaid Rd - North side,,-34.72101,138.68261,,http://www.adelaidemetro.com.au/stops/view/10241,,,,
251,10242,Stop 63 Kinkaid Rd - South West side,,-34.72107,138.6825,,http://www.adelaidemetro.com.au/stops/view/10242,,,,
257,10248,Stop 64 Port Wakefield Rd - South West side,,-34.72705,138.58052,,http://www.adelaidemetro.com.au/stops/view/10248,,,,
258,10249,Stop 62 Philip Hwy - South East side,,-34.72341,138.66822,,http://www.adelaidemetro.com.au/stops/view/10249,,,,
265,10256,Stop 61 Midway Rd - South East side,,-34.72543,138.68031,,http://www.adelaidemetro.com.au/stops/view/10256,,,,
266,10257,Stop 60 Midway Rd - West side,,-34.72623,138.67904,,http://www.adelaidemetro.com.au/stops/view/10257,,,,
273,10264,Stop 59 Midway Rd - South East side,,-34.728781,138.67645,,http://www.adelaidemetro.com.au/stops/view/10264,,,,
274,10265,Stop 60 Philip Hwy - South East side,,-34.7296610116098,138.664288034225,,http://www.adelaidemetro.com.au/stops/view/10265,,,,
281,10272,Stop 58 Main North Rd - East side,,-34.7318227954702,138.675867150611,,http://www.adelaidemetro.com.au/stops/view/10272,,,,
282,10273,Stop 63 Waterloo Corner Rd - North side,,-34.732242,138.5904,,http://www.adelaidemetro.com.au/stops/view/10273,,,,
288,10279,Stop 58 Fairfield Rd - North West side,,-34.73187,138.6724,,http://www.adelaidemetro.com.au/stops/view/10279,,,,
2,10002,Stop 92 Alawoona Rd - South East side,,-34.66114,138.70346,,http://www.adelaidemetro.com.au/stops/view/10002,,,,
7,10007,Stop 90 Carcoola Rd - South East side,,-34.6641360554388,138.704101967217,,http://www.adelaidemetro.com.au/stops/view/10007,,,,
10,10010,Stop 89 Carcoola Rd - North West side,,-34.6663451456967,138.70281418814,,http://www.adelaidemetro.com.au/stops/view/10010,,,,
13,10013,Stop 88 Noora Cr - North West side,,-34.6669868347755,138.700790419366,,http://www.adelaidemetro.com.au/stops/view/10013,,,,
21,10021,Stop 72 Old Port Wakefield Rd - South West side,,-34.6706,138.5617,,http://www.adelaidemetro.com.au/stops/view/10021,,,,
26,10026,Stop 78 Curtis Rd - South side,,-34.67019,138.675,,http://www.adelaidemetro.com.au/stops/view/10026,,,,
29,10029,Stop 78A Curtis Rd - North side,,-34.6710517209751,138.677303747585,,http://www.adelaidemetro.com.au/stops/view/10029,,,,
34,10034,Stop 71 Old Port Wakefield Rd - South West side,,-34.6748280746903,138.563009389142,,http://www.adelaidemetro.com.au/stops/view/10034,,,,
37,10037,Stop 85 Maltarra Rd - North West side,,-34.67343,138.6983,,http://www.adelaidemetro.com.au/stops/view/10037,,,,
42,10042,Stop 83 Maltarra Rd - South East side,,-34.6755889438042,138.694947130554,,http://www.adelaidemetro.com.au/stops/view/10042,,,,
53,10053,Stop 79H Coventry Rd - South East side,,-34.6800051487318,138.681300026312,,http://www.adelaidemetro.com.au/stops/view/10053,,,,
61,10058,Zone A Smithfield Interchange,,-34.6817215302139,138.687338249642,,http://www.adelaidemetro.com.au/stops/view/10058,,,,
70,10063,Stop 81A Anderson Wk - North side,,-34.6833769106336,138.692214874369,,http://www.adelaidemetro.com.au/stops/view/10063,,,,
75,10068,Stop 69 Old Port Wakefield Rd - East side,,-34.686189708295,138.56700144436,,http://www.adelaidemetro.com.au/stops/view/10068,,,,
83,10076,Stop 76 Whitington Rd - North side,,-34.6855148015043,138.675551304497,,http://www.adelaidemetro.com.au/stops/view/10076,,,,
86,10079,Stop 86 Craigmore Rd - North side,,-34.6846601389113,138.708895725381,,http://www.adelaidemetro.com.au/stops/view/10079,,,,
95,10087,Stop 85 Craigmore Rd - North side,,-34.6859606674409,138.711978967227,,http://www.adelaidemetro.com.au/stops/view/10087,,,,
100,10092,Stop 91 Park Lake Bvd - East side,,-34.6877630320762,138.698363696671,,http://www.adelaidemetro.com.au/stops/view/10092,,,,
108,10100,Stop 91 Park Lake Bvd - West side,,-34.68794,138.69813,,http://www.adelaidemetro.com.au/stops/view/10100,,,,
111,10103,Stop 77 Hamblynn Rd - South East side,,-34.6913627528871,138.693925506724,,http://www.adelaidemetro.com.au/stops/view/10103,,,,
114,10106,Stop 77 Adams Rd - East side,,-34.6914984097203,138.710035758427,,http://www.adelaidemetro.com.au/stops/view/10106,,,,
119,10111,Stop 72 Peachey Rd - East side,,-34.6925382141167,138.667888459978,,http://www.adelaidemetro.com.au/stops/view/10111,,,,
122,10114,Stop 68 Port Wakefield Rd - North East side,,-34.6950757112301,138.569654843048,,http://www.adelaidemetro.com.au/stops/view/10114,,,,
127,10119,Stop 76C Hanson Rd - South West side,,-34.6954002455855,138.700034230637,,http://www.adelaidemetro.com.au/stops/view/10119,,,,
130,10122,Stop 79B Uley Rd - North side,,-34.69603,138.70779,,http://www.adelaidemetro.com.au/stops/view/10122,,,,
135,10127,Stop 76B Hanson Rd - South East side,,-34.696002532521,138.699802036735,,http://www.adelaidemetro.com.au/stops/view/10127,,,,
141,10133,Stop 79A Uley Rd - North side,,-34.69725,138.7107,,http://www.adelaidemetro.com.au/stops/view/10133,,,,
146,10138,Stop 71 Woodford Rd - South East side,,-34.698532430676,138.67904776014,,http://www.adelaidemetro.com.au/stops/view/10138,,,,
149,10141,Stop 76A Hanson Rd - South East side,,-34.6986444186079,138.698154929371,,http://www.adelaidemetro.com.au/stops/view/10141,,,,
154,10146,Stop 79 Blair Park Dr - West side,,-34.69901,138.71109,,http://www.adelaidemetro.com.au/stops/view/10146,,,,
157,10149,Stop 73A Midway Rd - South side,,-34.7016908668602,138.688083606285,,http://www.adelaidemetro.com.au/stops/view/10149,,,,
162,10154,Stop 70 Woodford Rd - South East side,,-34.7011021597347,138.676967445545,,http://www.adelaidemetro.com.au/stops/view/10154,,,,
165,10157,Stop 70 Woodford Rd - North West side,,-34.7016386641485,138.67638604453,,http://www.adelaidemetro.com.au/stops/view/10157,,,,
170,10162,Stop 74 Campbell Rd - North East side,,-34.70385,138.69701,,http://www.adelaidemetro.com.au/stops/view/10162,,,,
173,10165,Stop 69 Woodford Rd - West side,,-34.7034900453873,138.675229350945,,http://www.adelaidemetro.com.au/stops/view/10165,,,,
176,10168,Stop 77 Blair Park Dr - South East side,,-34.70394,138.70911,,http://www.adelaidemetro.com.au/stops/view/10168,,,,
181,10173,Stop 73A Campbell Rd - South West side,,-34.7060990755081,138.697725602219,,http://www.adelaidemetro.com.au/stops/view/10173,,,,
184,10176,Stop 70 Yorktown Rd - North side,,-34.7070560560357,138.687196678365,,http://www.adelaidemetro.com.au/stops/view/10176,,,,
189,10181,Stop 66 Port Wakefield Rd - North East side,,-34.7113308367794,138.575534443969,,http://www.adelaidemetro.com.au/stops/view/10181,,,,
192,10184,Stop 68 Woodford Rd - East side,,-34.70642,138.67397,,http://www.adelaidemetro.com.au/stops/view/10184,,,,
197,10189,Stop 68 Woodford Rd - West side,,-34.70628,138.67371,,http://www.adelaidemetro.com.au/stops/view/10189,,,,
200,10192,Stop 75 Turner Dr - West side,,-34.70873,138.7047,,http://www.adelaidemetro.com.au/stops/view/10192,,,,
208,10200,Stop 74 Turner Dr - South East side,,-34.71163,138.70331,,http://www.adelaidemetro.com.au/stops/view/10200,,,,
211,10203,Stop 73 Turner Dr - South side,,-34.71247,138.70006,,http://www.adelaidemetro.com.au/stops/view/10203,,,,
216,10208,Stop 72 Turner Dr - South side,,-34.71233,138.69746,,http://www.adelaidemetro.com.au/stops/view/10208,,,,
219,10211,Stop 72 Turner Dr - North West side,,-34.71265,138.69644,,http://www.adelaidemetro.com.au/stops/view/10211,,,,
224,10216,Stop 67 Shillabeer Rd - South side,,-34.71562,138.68396,,http://www.adelaidemetro.com.au/stops/view/10216,,,,
227,10219,Stop 65C Ifould Rd - North side,,-34.71529,138.67916,,http://www.adelaidemetro.com.au/stops/view/10219,,,,
232,10224,Zone B Elizabeth City Centre - North West side,,-34.716741533,138.66906747,,http://www.adelaidemetro.com.au/stops/view/10224,,,,
235,10227,Zone E Elizabeth City Centre - South side,,-34.71692,138.66894,,http://www.adelaidemetro.com.au/stops/view/10227,,,,
243,10235,Stop 65 Yorktown Rd - South East side,,-34.7182638825597,138.678658498331,,http://www.adelaidemetro.com.au/stops/view/10235,,,,
246,10238,Stop 64B Playford Bvd - West side,,-34.71931,138.67114,,http://www.adelaidemetro.com.au/stops/view/10238,,,,
252,10243,Stop 63 Philip Hwy - West side,,-34.721078,138.669396,,http://www.adelaidemetro.com.au/stops/view/10243,,,,
255,10246,Stop 62 Midway Rd - East side,,-34.722548,138.683027,,http://www.adelaidemetro.com.au/stops/view/10246,,,,
260,10251,Stop 62 Philip Hwy - North West side,,-34.723921678835,138.667635369708,,http://www.adelaidemetro.com.au/stops/view/10251,,,,
268,10259,Stop 61 Philip Hwy - South East side,,-34.7267506274417,138.666138341151,,http://www.adelaidemetro.com.au/stops/view/10259,,,,
287,10278,Stop 58 Fairfield Rd - South East side,,-34.73161,138.67268,,http://www.adelaidemetro.com.au/stops/view/10278,,,,
290,10281,Stop 57 Main North Rd - East side,,-34.7342441598212,138.67600223634,,http://www.adelaidemetro.com.au/stops/view/10281,,,,
295,10286,Stop 58 Philip Hwy - North West side,,-34.73576,138.660191,,http://www.adelaidemetro.com.au/stops/view/10286,,,,
298,10289,Stop 57B burgate Rd - West side,,-34.7357735068543,138.670447916527,,http://www.adelaidemetro.com.au/stops/view/10289,,,,
303,10294,Stop 64 Diment Rd - South West side,,-34.7365,138.62058,,http://www.adelaidemetro.com.au/stops/view/10294,,,,
311,10302,Stop 61 Waterloo Corner Rd - North East side,,-34.738062,138.601976,,http://www.adelaidemetro.com.au/stops/view/10302,,,,
314,10305,Stop 57A Haydown Rd - North West side,,-34.73769,138.67066,,http://www.adelaidemetro.com.au/stops/view/10305,,,,
289,10280,Stop 63 Waterloo Corner Rd - South East side,,-34.734173,138.59525,,http://www.adelaidemetro.com.au/stops/view/10280,,,,
296,10287,Stop 65 Bolivar Rd - South East side,,-34.7356937015452,138.617799050963,,http://www.adelaidemetro.com.au/stops/view/10287,,,,
297,10288,Stop 58 Philip Hwy - South East side,,-34.73614,138.66015,,http://www.adelaidemetro.com.au/stops/view/10288,,,,
304,10295,Stop 58 Blackburn Rd - South East side,,-34.73661,138.68055,,http://www.adelaidemetro.com.au/stops/view/10295,,,,
305,10296,Stop 58 Blackburn Rd - North West side,,-34.73661,138.6804,,http://www.adelaidemetro.com.au/stops/view/10296,,,,
313,10304,Stop 57A Haydown Rd - South East side,,-34.7378165772683,138.670775972405,,http://www.adelaidemetro.com.au/stops/view/10304,,,,
319,10310,Stop 60 Waterloo Corner Rd - North East side,,-34.740321,138.605613,,http://www.adelaidemetro.com.au/stops/view/10310,,,,
320,10311,Stop 56A Hogarth Rd - North side,,-34.73959,138.66249,,http://www.adelaidemetro.com.au/stops/view/10311,,,,
327,10318,Stop 62A Diment Rd - South West side,,-34.740186,138.626465,,http://www.adelaidemetro.com.au/stops/view/10318,,,,
328,10319,Stop 62A Diment Rd - North East side,,-34.74014,138.62679,,http://www.adelaidemetro.com.au/stops/view/10319,,,,
335,10326,Stop 57 Haydown Rd - West side,,-34.7399042072728,138.669275617967,,http://www.adelaidemetro.com.au/stops/view/10326,,,,
336,10327,Stop 59 Waterloo Corner Rd - South West side,,-34.74292,138.60964,,http://www.adelaidemetro.com.au/stops/view/10327,,,,
344,10335,Stop 55A Mofflin Rd - West side,,-34.74253,138.6636,,http://www.adelaidemetro.com.au/stops/view/10335,,,,
351,10342,Stop 64 Kensington Wy - East side,,-34.7445,138.59733,,http://www.adelaidemetro.com.au/stops/view/10342,,,,
358,10349,Stop 55 Main North Rd - West side,,-34.7442528836518,138.67609675012,,http://www.adelaidemetro.com.au/stops/view/10349,,,,
359,10350,Stop 56 Philip Hwy - West side,,-34.742447491207,138.657261906341,,http://www.adelaidemetro.com.au/stops/view/10350,,,,
366,10357,Stop 59A Quadrant Av - North side,,-34.7449046992013,138.629062584657,,http://www.adelaidemetro.com.au/stops/view/10357,,,,
367,10358,Stop 65 Kensington Wy - West side,,-34.74717,138.5962,,http://www.adelaidemetro.com.au/stops/view/10358,,,,
374,10365,Stop 56 Guerin Rd - East side,,-34.74495,138.67318,,http://www.adelaidemetro.com.au/stops/view/10365,,,,
375,10366,Stop 54B Henryk Dr - West side,,-34.74567,138.67867,,http://www.adelaidemetro.com.au/stops/view/10366,,,,
384,10373,Stop 56 Waterloo Corner Rd - North East side,,-34.74824,138.61863,,http://www.adelaidemetro.com.au/stops/view/10373,,,,
392,10381,Stop 54A Bungarra St - South side,,-34.74756,138.67878,,http://www.adelaidemetro.com.au/stops/view/10381,,,,
393,10382,Stop 66 Burton Rd - North East side,,-34.74878,138.59787,,http://www.adelaidemetro.com.au/stops/view/10382,,,,
400,10389,Stop 56A Deane St - North West side,,-34.75003,138.63178,,http://www.adelaidemetro.com.au/stops/view/10389,,,,
401,10390,Stop 57A Parallel Av - East side,,-34.74839,138.629469,,http://www.adelaidemetro.com.au/stops/view/10390,,,,
408,10397,Stop 55A Deane St - South side,,-34.74903,138.6342,,http://www.adelaidemetro.com.au/stops/view/10397,,,,
409,10398,Stop 54A John Rice Av - North West side,,-34.7495301999501,138.664196092077,,http://www.adelaidemetro.com.au/stops/view/10398,,,,
415,10404,Stop 54 John Rice Av - North West side,,-34.7502,138.66179,,http://www.adelaidemetro.com.au/stops/view/10404,,,,
416,10405,Stop 54 John Rice Av - South East side,,-34.75032,138.66195,,http://www.adelaidemetro.com.au/stops/view/10405,,,,
424,10413,Stop 53 Black Top Rd - North side,,-34.75107,138.68027,,http://www.adelaidemetro.com.au/stops/view/10413,,,,
436,10424,Stop 52A Downton Av - South East side,,-34.7534724707301,138.636905849386,,http://www.adelaidemetro.com.au/stops/view/10424,,,,
437,10425,Stop 52A Downton Av - North West side,,-34.7538960426605,138.636376506318,,http://www.adelaidemetro.com.au/stops/view/10425,,,,
444,10432,Stop 53A Jarvis Rd - South East side,,-34.7547418393114,138.655552136796,,http://www.adelaidemetro.com.au/stops/view/10432,,,,
445,10433,Stop 51P Halba Cr - East side,,-34.7539807075475,138.622835064021,,http://www.adelaidemetro.com.au/stops/view/10433,,,,
452,10440,Stop 52A Porter St - South West side,,-34.7552688901165,138.651303624712,,http://www.adelaidemetro.com.au/stops/view/10440,,,,
453,10441,Stop 52A Porter St - North East side,,-34.7554339978758,138.651787056377,,http://www.adelaidemetro.com.au/stops/view/10441,,,,
459,10447,Stop 52 Waterloo Corner Rd - North East side,,-34.7555974514061,138.63070115879,,http://www.adelaidemetro.com.au/stops/view/10447,,,,
460,10448,Stop 53 Jarvis Rd - North West side,,-34.7563605843892,138.654366032203,,http://www.adelaidemetro.com.au/stops/view/10448,,,,
467,10455,Stop 47P Whites Rd - North West side,,-34.7579092651456,138.613611132506,,http://www.adelaidemetro.com.au/stops/view/10455,,,,
468,10456,Stop 47P Whites Rd - South East side,,-34.7579196845512,138.613793362462,,http://www.adelaidemetro.com.au/stops/view/10456,,,,
475,10463,Stop 48P Yalumba Dr - South West side,,-34.7570393287365,138.616320671936,,http://www.adelaidemetro.com.au/stops/view/10463,,,,
476,10464,Stop 45 Burton Rd - South West side,,-34.7585941226834,138.613765038528,,http://www.adelaidemetro.com.au/stops/view/10464,,,,
483,10471,Stop 51 Main North Rd - North West side,,-34.7589715938358,138.675531875073,,http://www.adelaidemetro.com.au/stops/view/10471,,,,
484,10472,Stop 45A Burton Rd - South West side,,-34.7599093142197,138.615982092592,,http://www.adelaidemetro.com.au/stops/view/10472,,,,
490,10478,Stop 51 Commercial Rd - South West side,,-34.76007,138.64841,,http://www.adelaidemetro.com.au/stops/view/10478,,,,
491,10479,Stop 43A Liberator Dr - North East side,,-34.75933,138.59538,,http://www.adelaidemetro.com.au/stops/view/10479,,,,
498,10486,Stop 55 Saints Rd - South side,,-34.7606057401726,138.660071711693,,http://www.adelaidemetro.com.au/stops/view/10486,,,,
499,10487,Stop 58 Carlingford Dr - South East side,,-34.7616587908938,138.668996532417,,http://www.adelaidemetro.com.au/stops/view/10487,,,,
517,10503,Stop 49 Church St - West side,,-34.7626393233711,138.64540240383,,http://www.adelaidemetro.com.au/stops/view/10503,,,,
518,10504,Stop 58 Saints Rd - North East side,,-34.7624453258536,138.663327241467,,http://www.adelaidemetro.com.au/stops/view/10504,,,,
532,10518,Stop 45C Burton Rd - South West side,,-34.7633708678924,138.621303028907,,http://www.adelaidemetro.com.au/stops/view/10518,,,,
533,10519,Stop 48A Church St - North West side,,-34.7644972329884,138.645841823646,,http://www.adelaidemetro.com.au/stops/view/10519,,,,
545,10530,Stop 47 Winzor St - North West side,,-34.763023073362,138.631357987095,,http://www.adelaidemetro.com.au/stops/view/10530,,,,
546,10531,Stop 47A Winzor St - South East side,,-34.7634769942751,138.635808003885,,http://www.adelaidemetro.com.au/stops/view/10531,,,,
553,10538,Stop 62 Canterbury Dr - West side,,-34.7627653783998,138.6752922931,,http://www.adelaidemetro.com.au/stops/view/10538,,,,
554,10539,Stop 52 Ponton St - North East side,,-34.7646331015092,138.65443358425,,http://www.adelaidemetro.com.au/stops/view/10539,,,,
561,10546,Stop 64A Target Hill Rd - North East side,,-34.7649601818649,138.689641061544,,http://www.adelaidemetro.com.au/stops/view/10546,,,,
562,10547,Stop 62 Canterbury Dr - East side,,-34.76294122268,138.675314058849,,http://www.adelaidemetro.com.au/stops/view/10547,,,,
569,10554,Stop 43P Whites Rd - South East side,,-34.7663817839535,138.606255960009,,http://www.adelaidemetro.com.au/stops/view/10554,,,,
579,10562,Stop 45 Winzor St - North West side,,-34.767132179539,138.623815641562,,http://www.adelaidemetro.com.au/stops/view/10562,,,,
580,10563,Stop 60 The Grove Wy - South side,,-34.7669986895596,138.671102780716,,http://www.adelaidemetro.com.au/stops/view/10563,,,,
587,10570,Stop 48 Park Tce - North East side,,-34.7680367655856,138.651016973141,,http://www.adelaidemetro.com.au/stops/view/10570,,,,
588,10571,Stop 65 Target Hill Rd - South side,,-34.766331112549,138.694789545897,,http://www.adelaidemetro.com.au/stops/view/10571,,,,
317,10308,Stop 63A Diment Rd - South West side,,-34.73813,138.62322,,http://www.adelaidemetro.com.au/stops/view/10308,,,,
322,10313,Stop 56A Hogarth Rd - South side,,-34.73971,138.66248,,http://www.adelaidemetro.com.au/stops/view/10313,,,,
325,10316,Stop 56 Main North Rd - West side,,-34.7406265997423,138.675852769924,,http://www.adelaidemetro.com.au/stops/view/10316,,,,
330,10321,Stop 63 Kensington Wy - Western side,,-34.74287,138.59767,,http://www.adelaidemetro.com.au/stops/view/10321,,,,
338,10329,Stop 56B Hogarth Rd - North side,,-34.7415922477534,138.671536914796,,http://www.adelaidemetro.com.au/stops/view/10329,,,,
341,10332,Stop 56 Main North Rd - North East side,,-34.7419603127659,138.676459465115,,http://www.adelaidemetro.com.au/stops/view/10332,,,,
346,10337,Stop 61A Whites Rd - West side,,-34.74162,138.62811,,http://www.adelaidemetro.com.au/stops/view/10337,,,,
349,10340,Stop 58 Waterloo Corner Rd - North East side,,-34.745152460624,138.613618728998,,http://www.adelaidemetro.com.au/stops/view/10340,,,,
352,10343,Stop 61A Whites Rd - East side,,-34.74233,138.62766,,http://www.adelaidemetro.com.au/stops/view/10343,,,,
357,10348,Stop 55 Menka St - North East side,,-34.74365,138.6789,,http://www.adelaidemetro.com.au/stops/view/10348,,,,
360,10351,Stop 60A Quadrant Av - South side,,-34.74365,138.62695,,http://www.adelaidemetro.com.au/stops/view/10351,,,,
365,10356,Stop 55 Mofflin Rd - West side,,-34.74503,138.66202,,http://www.adelaidemetro.com.au/stops/view/10356,,,,
373,10364,Stop 56 Guerin Rd - West side,,-34.74509,138.67294,,http://www.adelaidemetro.com.au/stops/view/10364,,,,
379,10370,Stop 58A Quadrant Av - North side,,-34.746109,138.631049,,http://www.adelaidemetro.com.au/stops/view/10370,,,,
394,10383,Stop 66 Burton Rd - South West side,,-34.7489247784302,138.597914501292,,http://www.adelaidemetro.com.au/stops/view/10383,,,,
399,10388,Stop 55 John Rice Av - South East side,,-34.74875,138.66756,,http://www.adelaidemetro.com.au/stops/view/10388,,,,
402,10391,Stop 56A Kelsey Rd - South West side,,-34.7500141730552,138.63110815237,,http://www.adelaidemetro.com.au/stops/view/10391,,,,
407,10396,Stop 67 Burton Rd - South West side,,-34.75038,138.60022,,http://www.adelaidemetro.com.au/stops/view/10396,,,,
410,10399,Stop 54A John Rice Av - South East side,,-34.74959,138.66448,,http://www.adelaidemetro.com.au/stops/view/10399,,,,
413,10402,Stop 54 Waterloo Corner Rd - North East side,,-34.75125,138.62353,,http://www.adelaidemetro.com.au/stops/view/10402,,,,
418,10407,Stop 53C John Rice Av - South East side,,-34.7509230896689,138.659828279057,,http://www.adelaidemetro.com.au/stops/view/10407,,,,
421,10410,Stop 68 Burton Rd - South West side,,-34.7517649001601,138.602550260811,,http://www.adelaidemetro.com.au/stops/view/10410,,,,
426,10415,Stop 52C Bagster Rd - North West side,,-34.75359,138.63317,,http://www.adelaidemetro.com.au/stops/view/10415,,,,
429,10418,Stop 53B Hamdon Rd - North side,,-34.75276,138.65689,,http://www.adelaidemetro.com.au/stops/view/10418,,,,
435,10423,Stop 52P Halba Cr - North West side,,-34.75225,138.62419,,http://www.adelaidemetro.com.au/stops/view/10423,,,,
443,10431,Stop 53A Jarvis Rd - North West side,,-34.7547140631858,138.655407757667,,http://www.adelaidemetro.com.au/stops/view/10431,,,,
451,10439,Stop 44B Burton Rd - North East side,,-34.7554775695614,138.608929581818,,http://www.adelaidemetro.com.au/stops/view/10439,,,,
454,10442,Stop 52 Main North Rd - North West side,,-34.7554196019277,138.677836380658,,http://www.adelaidemetro.com.au/stops/view/10442,,,,
462,10450,Stop 43C Liberator Dr - East side,,-34.7553205153955,138.593906082371,,http://www.adelaidemetro.com.au/stops/view/10450,,,,
465,10453,Stop 52 Commercial Rd - South East side,,-34.756517946481,138.649168999696,,http://www.adelaidemetro.com.au/stops/view/10453,,,,
470,10458,Stop 50P Vindana Rd - North West side,,-34.7557791105491,138.622801050344,,http://www.adelaidemetro.com.au/stops/view/10458,,,,
478,10466,Stop 46P Whites Rd - South East side,,-34.7597640711823,138.612146176636,,http://www.adelaidemetro.com.au/stops/view/10466,,,,
481,10469,Stop 46P Whites Rd - North West side,,-34.7594153477273,138.61225116839,,http://www.adelaidemetro.com.au/stops/view/10469,,,,
486,10474,Stop 57 Goddard Dr - North side,,-34.7602646296151,138.668182882181,,http://www.adelaidemetro.com.au/stops/view/10474,,,,
489,10477,Stop 56A Goddard Dr - South side,,-34.7598560384353,138.664537873402,,http://www.adelaidemetro.com.au/stops/view/10477,,,,
492,10480,Stop 63 Target Hill Rd - North side,,-34.7608970380743,138.681686317367,,http://www.adelaidemetro.com.au/stops/view/10480,,,,
497,10485,Stop 45B Burton Rd - North East side,,-34.7613603483631,138.618615416249,,http://www.adelaidemetro.com.au/stops/view/10485,,,,
500,10488,Stop 56 Goddard Dr - South East side,,-34.7603576160856,138.662736806332,,http://www.adelaidemetro.com.au/stops/view/10488,,,,
505,10493,Stop 45P Whites Rd - North West side,,-34.7627850581903,138.60927019679,,http://www.adelaidemetro.com.au/stops/view/10493,,,,
509,10496,Stop 55 Saints Rd - North side,,-34.7614052638332,138.661624913764,,http://www.adelaidemetro.com.au/stops/view/10496,,,,
512,10498,Stop 50 Main North Rd - South East side,,-34.7616537068281,138.673789435418,,http://www.adelaidemetro.com.au/stops/view/10498,,,,
515,10501,Stop 50/E Ann St - West side,,-34.7617628748645,138.647974257502,,http://www.adelaidemetro.com.au/stops/view/10501,,,,
520,10506,Stop 43 Kings Rd - North side,,-34.7615129499135,138.597399054765,,http://www.adelaidemetro.com.au/stops/view/10506,,,,
523,10509,Stop 50/C Ann St - East side,,-34.761965,138.648272,,http://www.adelaidemetro.com.au/stops/view/10509,,,,
526,10512,Zone E Salisbury Interchange - East Side,,-34.76219798876,138.6426195502,,http://www.adelaidemetro.com.au/stops/view/10512,,,,
531,10517,Stop 58A Carlingford Dr - East side,,-34.7637310998938,138.667149679686,,http://www.adelaidemetro.com.au/stops/view/10517,,,,
534,10520,Zone C Salisbury Interchange - West Side,,-34.7627565749596,138.642547130585,,http://www.adelaidemetro.com.au/stops/view/10520,,,,
537,10522,Stop 50 Salisbury Hwy - South East side,,-34.7563395092402,138.646750357037,,http://www.adelaidemetro.com.au/stops/view/10522,,,,
540,10525,Stop 58A Carlingford Dr - West side,,-34.7640432657096,138.666726888035,,http://www.adelaidemetro.com.au/stops/view/10525,,,,
543,10528,Zone H Salisbury Interchange - East Side,,-34.76304082447,138.64271208644,,http://www.adelaidemetro.com.au/stops/view/10528,,,,
548,10533,Stop 47 Winzor St - South East side,,-34.7631814412533,138.63164248791,,http://www.adelaidemetro.com.au/stops/view/10533,,,,
551,10536,Stop 48A Park Tce - South West side,,-34.76525,138.64623,,http://www.adelaidemetro.com.au/stops/view/10536,,,,
556,10541,Stop 42B Kings Rd - North side,,-34.7632644319141,138.600298559011,,http://www.adelaidemetro.com.au/stops/view/10541,,,,
559,10544,Stop 44P Whites Rd - North West side,,-34.7648490750187,138.607432731629,,http://www.adelaidemetro.com.au/stops/view/10544,,,,
564,10549,Stop 59 Saints Rd - North side,,-34.7654012552357,138.668336768785,,http://www.adelaidemetro.com.au/stops/view/10549,,,,
567,10552,Stop 45D Burton Rd - South West side,,-34.7657494493035,138.625523631352,,http://www.adelaidemetro.com.au/stops/view/10552,,,,
570,10555,Stop 42A Kings Rd - North side,,-34.7646472068811,138.602587130922,,http://www.adelaidemetro.com.au/stops/view/10555,,,,
575,10560,Stop 47 Thomas St - North East side,,-34.7662100766439,138.637295760592,,http://www.adelaidemetro.com.au/stops/view/10560,,,,
582,10565,Stop 61A Canterbury Dr - North side,,-34.7659361635798,138.674978785666,,http://www.adelaidemetro.com.au/stops/view/10565,,,,
585,10568,Stop 65A Target Hill Rd - North side,,-34.7672680270265,138.698549706708,,http://www.adelaidemetro.com.au/stops/view/10568,,,,
590,10573,Stop 46 Salisbury Hwy - North West side,,-34.7669061365979,138.637260934676,,http://www.adelaidemetro.com.au/stops/view/10573,,,,
593,10576,Stop 60A The Grove Wy - South side,,-34.7678479924453,138.673497929062,,http://www.adelaidemetro.com.au/stops/view/10576,,,,
599,10581,Stop 65A Target Hill Rd - South side,,-34.767361498157,138.69824559434,,http://www.adelaidemetro.com.au/stops/view/10581,,,,
595,10578,Stop 74A Golden Grove Rd - North West side,,-34.7701115424252,138.708260556337,,http://www.adelaidemetro.com.au/stops/view/10578,,,,
596,10579,Stop 45C Spains Rd - North side,,-34.76664,138.6273,,http://www.adelaidemetro.com.au/stops/view/10579,,,,
601,10583,Stop 42A Kings Rd - South side,,-34.7645521950908,138.602164659928,,http://www.adelaidemetro.com.au/stops/view/10583,,,,
608,10590,Stop 73 The Golden Wy - East side,,-34.7700813494563,138.718867442711,,http://www.adelaidemetro.com.au/stops/view/10590,,,,
609,10591,Stop 45B Spains Rd - North side,,-34.7685049023292,138.630360062003,,http://www.adelaidemetro.com.au/stops/view/10591,,,,
616,10598,Stop 47B Cross Keys Rd - West side,,-34.7704038739286,138.650112146446,,http://www.adelaidemetro.com.au/stops/view/10598,,,,
617,10599,Stop 45 Salisbury Hwy - East side,,-34.7694479069821,138.635273330749,,http://www.adelaidemetro.com.au/stops/view/10599,,,,
632,10611,Stop 40P Andrew Smith Dr - East side,,-34.7714210320047,138.610255875193,,http://www.adelaidemetro.com.au/stops/view/10611,,,,
633,10612,Stop 40P Hemming St - West side,,-34.772798872993,138.608746000901,,http://www.adelaidemetro.com.au/stops/view/10612,,,,
640,10616,Stop 42 Martins Rd - West side,,-34.7717650023262,138.617077611417,,http://www.adelaidemetro.com.au/stops/view/10616,,,,
641,10617,Stop 48 Main North Rd - East side,,-34.7724373269937,138.664226511013,,http://www.adelaidemetro.com.au/stops/view/10617,,,,
645,10620,Stop 39P Hemming St - East side,,-34.7741928603135,138.608908503238,,http://www.adelaidemetro.com.au/stops/view/10620,,,,
646,10621,Stop 39C Andrew Smith Dr - North side,,-34.772450063691,138.605482579262,,http://www.adelaidemetro.com.au/stops/view/10621,,,,
658,10632,Stop 39B Jamison St - South West side,,-34.7745045303907,138.602728067137,,http://www.adelaidemetro.com.au/stops/view/10632,,,,
659,10633,Stop 47 Cross Keys Rd - South side,,-34.7757489529488,138.645497618219,,http://www.adelaidemetro.com.au/stops/view/10633,,,,
664,10637,Stop 47 Smith St - South side,,-34.7752725241513,138.662556028571,,http://www.adelaidemetro.com.au/stops/view/10637,,,,
665,10638,Stop 71 The Golden Wy - West side,,-34.7754494821916,138.715722938951,,http://www.adelaidemetro.com.au/stops/view/10638,,,,
671,10644,Stop 40B Lavender Dr - North West side,,-34.7758397563178,138.618639868553,,http://www.adelaidemetro.com.au/stops/view/10644,,,,
672,10645,Stop 46B Smith St - North side,,-34.7767614508447,138.665261261372,,http://www.adelaidemetro.com.au/stops/view/10645,,,,
679,10652,Stop 40 Lobelia Dr - North side,,-34.7786430483936,138.614084746159,,http://www.adelaidemetro.com.au/stops/view/10652,,,,
680,10653,Stop 46 Gloucester Rd - West side,,-34.7766394715862,138.668277738721,,http://www.adelaidemetro.com.au/stops/view/10653,,,,
687,10660,Stop 46B Frost Rd - South West side,,-34.777781189111,138.645292561093,,http://www.adelaidemetro.com.au/stops/view/10660,,,,
688,10661,Stop 38C Shepherdson Rd - North East side,,-34.7769657315704,138.600355295839,,http://www.adelaidemetro.com.au/stops/view/10661,,,,
696,10669,Stop 46 Main North Rd - North West side,,-34.7782975688795,138.658476316808,,http://www.adelaidemetro.com.au/stops/view/10669,,,,
702,10675,Stop 64A Victoria Rd - South West side,,-34.7788254057416,138.492863644479,,http://www.adelaidemetro.com.au/stops/view/10675,,,,
703,10676,Stop 69 The Golden Wy - East side,,-34.7810558678444,138.709638974964,,http://www.adelaidemetro.com.au/stops/view/10676,,,,
710,10683,Stop 45A Bridge Rd - North West side,,-34.78006083865,138.673129237049,,http://www.adelaidemetro.com.au/stops/view/10683,,,,
711,10684,Stop 69 The Golden Wy - West side,,-34.7809765344074,138.70946243151,,http://www.adelaidemetro.com.au/stops/view/10684,,,,
718,10691,Stop 64 Victoria Rd - South West side,,-34.7800366194549,138.495432533081,,http://www.adelaidemetro.com.au/stops/view/10691,,,,
719,10692,Stop 68 Atlantis Dr - North West side,,-34.7799592461846,138.706730182942,,http://www.adelaidemetro.com.au/stops/view/10692,,,,
726,10699,Stop 46 Frost Rd - North East side,,-34.78059,138.65013,,http://www.adelaidemetro.com.au/stops/view/10699,,,,
727,10700,Stop 45 Bridge Rd - South East side,,-34.7823601801285,138.671251078889,,http://www.adelaidemetro.com.au/stops/view/10700,,,,
733,10706,Stop 67 Atlantis Dr - West side,,-34.780281629537,138.703272397965,,http://www.adelaidemetro.com.au/stops/view/10706,,,,
742,10715,Stop 36C Oleander Dr - South East side,,-34.7844092927052,138.61125536113,,http://www.adelaidemetro.com.au/stops/view/10715,,,,
749,10722,Stop 39 Salisbury Hwy - West side,,-34.78307,138.6228,,http://www.adelaidemetro.com.au/stops/view/10722,,,,
757,10730,Stop 45 Clayson Rd - South West side,,-34.78391,138.65542,,http://www.adelaidemetro.com.au/stops/view/10730,,,,
758,10731,Stop 58 John Rd - North side,,-34.78435,138.71409,,http://www.adelaidemetro.com.au/stops/view/10731,,,,
770,10742,Stop 44D Northbri Av - East side,,-34.785,138.65657,,http://www.adelaidemetro.com.au/stops/view/10742,,,,
771,10743,Stop 57 John Rd - South side,,-34.78568,138.71616,,http://www.adelaidemetro.com.au/stops/view/10743,,,,
783,10754,Stop 59A Bicentenial Dr - South East side,,-34.78712,138.70912,,http://www.adelaidemetro.com.au/stops/view/10754,,,,
784,10755,Stop 59A Bicentenial Dr - North West side,,-34.78676,138.70973,,http://www.adelaidemetro.com.au/stops/view/10755,,,,
791,10762,Stop 56 Golden Grove Rd - South East side,,-34.787711,138.71565,,http://www.adelaidemetro.com.au/stops/view/10762,,,,
792,10763,Stop 65 The Golden Wy - North West side,,-34.78849,138.70109,,http://www.adelaidemetro.com.au/stops/view/10763,,,,
798,10769,Stop 36A Oleander Dr - West side,,-34.79008,138.60712,,http://www.adelaidemetro.com.au/stops/view/10769,,,,
799,10770,Stop 64 Atlantis Dr - West side,,-34.78774,138.6983,,http://www.adelaidemetro.com.au/stops/view/10770,,,,
806,10777,Stop 60A Bicentenial Dr - North West side,,-34.78896,138.70524,,http://www.adelaidemetro.com.au/stops/view/10777,,,,
807,10778,Stop 43 Main North Rd - West side,,-34.78951,138.6488,,http://www.adelaidemetro.com.au/stops/view/10778,,,,
818,10787,Stop 43D Bridge Rd - East side,,-34.79214,138.66231,,http://www.adelaidemetro.com.au/stops/view/10787,,,,
828,10795,Stop 36 Oleander Dr - South East side,,-34.79209,138.6064,,http://www.adelaidemetro.com.au/stops/view/10795,,,,
831,10796,Stop 36 Salisbury Hwy - South East side,,-34.7916382538404,138.615434962904,,http://www.adelaidemetro.com.au/stops/view/10796,,,,
839,10804,Stop 54 Golden Grove Rd - South East side,,-34.79255,138.71121,,http://www.adelaidemetro.com.au/stops/view/10804,,,,
846,10811,Stop 35 Salisbury Hwy - South East side,,-34.7933009790275,138.613951441609,,http://www.adelaidemetro.com.au/stops/view/10811,,,,
847,10812,Stop 59 Military Rd - East side,,-34.79333,138.49679,,http://www.adelaidemetro.com.au/stops/view/10812,,,,
859,10823,Stop 66 Yatala Vale Rd - South side,,-34.79451,138.7265,,http://www.adelaidemetro.com.au/stops/view/10823,,,,
860,10824,Stop 43C Mcintyre Rd - North side,,-34.79542,138.65306,,http://www.adelaidemetro.com.au/stops/view/10824,,,,
868,10832,Stop 68 Yatala Vale Rd - North side,,-34.79486,138.71865,,http://www.adelaidemetro.com.au/stops/view/10832,,,,
872,10835,Stop 43C Mcintyre Rd - South side,,-34.79522,138.65245,,http://www.adelaidemetro.com.au/stops/view/10835,,,,
873,10836,Stop 43B Bridge Rd - East side,,-34.7966173263723,138.658496215831,,http://www.adelaidemetro.com.au/stops/view/10836,,,,
885,10847,Stop 40 Main North Rd - West side,,-34.7963,138.6427,,http://www.adelaidemetro.com.au/stops/view/10847,,,,
893,10855,Stop 58 Military Rd - West side,,-34.79688,138.49649,,http://www.adelaidemetro.com.au/stops/view/10855,,,,
894,10856,Stop 60 Wynn Vale Dr - North side,,-34.79692,138.68268,,http://www.adelaidemetro.com.au/stops/view/10856,,,,
901,10863,Stop 61 Wynn Vale Dr - North side,,-34.7972,138.68617,,http://www.adelaidemetro.com.au/stops/view/10863,,,,
902,10864,Stop 52 Golden Grove Rd - West side,,-34.79727,138.7077,,http://www.adelaidemetro.com.au/stops/view/10864,,,,
919,10879,Stop 58 Victoria Rd - West side,,-34.7989619961723,138.501258890465,,http://www.adelaidemetro.com.au/stops/view/10879,,,,
920,10880,Stop 62 Katarama Rd - North side,,-34.79915,138.72992,,http://www.adelaidemetro.com.au/stops/view/10880,,,,
927,10887,Stop 39 Main North Rd - East side,,-34.79965,138.6401,,http://www.adelaidemetro.com.au/stops/view/10887,,,,
928,10888,Stop 58 Richardson Rd - North West side,,-34.80003,138.69359,,http://www.adelaidemetro.com.au/stops/view/10888,,,,
936,10896,Stop 57 Military Rd - West side,,-34.80059,138.49645,,http://www.adelaidemetro.com.au/stops/view/10896,,,,
942,10902,Stop 43 Bridge Rd - West side,,-34.7993107998802,138.655828800811,,http://www.adelaidemetro.com.au/stops/view/10902,,,,
943,10903,Stop 62A Zealand St - East side,,-34.80119,138.71326,,http://www.adelaidemetro.com.au/stops/view/10903,,,,
950,10910,Stop 62 Illyarrie Av - South East side,,-34.8019825801172,138.710926559552,,http://www.adelaidemetro.com.au/stops/view/10910,,,,
958,10918,Stop 42A Bridge Rd - West side,,-34.8018055829681,138.65359703114,,http://www.adelaidemetro.com.au/stops/view/10918,,,,
959,10919,Stop 60 Hamilton Rd - East side,,-34.80476,138.73145,,http://www.adelaidemetro.com.au/stops/view/10919,,,,
966,10926,Stop 41E Nelson Rd - South West side,,-34.80378,138.65963,,http://www.adelaidemetro.com.au/stops/view/10926,,,,
967,10927,Stop 56 Military Rd - West side,,-34.80362,138.49647,,http://www.adelaidemetro.com.au/stops/view/10927,,,,
974,10934,Stop 33A Elder Dr - West side,,-34.806285,138.606383,,http://www.adelaidemetro.com.au/stops/view/10934,,,,
979,10938,Stop 42 Bridge Rd - West side,,-34.803491,138.652085,,http://www.adelaidemetro.com.au/stops/view/10938,,,,
980,10939,Stop 50 Golden Grove Rd - West side,,-34.805166,138.701463,,http://www.adelaidemetro.com.au/stops/view/10939,,,,
987,10946,Stop 41D Nelson Rd - South West side,,-34.80543,138.65985,,http://www.adelaidemetro.com.au/stops/view/10946,,,,
988,10947,Stop 54 Hillendale Dr - West side,,-34.8055,138.68041,,http://www.adelaidemetro.com.au/stops/view/10947,,,,
994,10953,Stop 54 Hillendale Dr - East side,,-34.80583,138.68065,,http://www.adelaidemetro.com.au/stops/view/10953,,,,
995,10954,Stop 56 Grenfell Rd - South side,,-34.80597,138.71281,,http://www.adelaidemetro.com.au/stops/view/10954,,,,
1002,10961,Stop 55 Cronulla Dr - South East side,,-34.8062431567361,138.716272790102,,http://www.adelaidemetro.com.au/stops/view/10961,,,,
1010,10969,Stop 58 Haines Rd - West side,,-34.80755,138.73004,,http://www.adelaidemetro.com.au/stops/view/10969,,,,
1011,10970,Stop 55 Hancock Rd - West side,,-34.80898,138.71764,,http://www.adelaidemetro.com.au/stops/view/10970,,,,
1018,10977,Stop 54 Cronulla Dr - West side,,-34.8072671604442,138.714710210224,,http://www.adelaidemetro.com.au/stops/view/10977,,,,
1019,10978,Stop 53 The Golden Wy - North West side,,-34.80768,138.67781,,http://www.adelaidemetro.com.au/stops/view/10978,,,,
1025,10984,Stop 56 Elizabeth St - West side,,-34.80896,138.72418,,http://www.adelaidemetro.com.au/stops/view/10984,,,,
1026,10985,Stop 56 Elizabeth St - East side,,-34.80892,138.72436,,http://www.adelaidemetro.com.au/stops/view/10985,,,,
1033,10992,Stop 54 Victoria Rd - West side,,-34.8091070336822,138.501171547761,,http://www.adelaidemetro.com.au/stops/view/10992,,,,
1034,10993,Stop 48 Golden Grove Rd - West side,,-34.80899,138.69745,,http://www.adelaidemetro.com.au/stops/view/10993,,,,
1041,11000,Stop 53 Cronulla Dr - East side,,-34.80988,138.71352,,http://www.adelaidemetro.com.au/stops/view/11000,,,,
1042,11001,Stop 53 Cronulla Dr - West side,,-34.8097337372725,138.713476956067,,http://www.adelaidemetro.com.au/stops/view/11001,,,,
1049,11008,Stop 51 Ladywood Rd - East side,,-34.8124604775547,138.686457256396,,http://www.adelaidemetro.com.au/stops/view/11008,,,,
1050,11009,Stop 41A Kesters Rd - North East side,,-34.8110190398231,138.656412265008,,http://www.adelaidemetro.com.au/stops/view/11009,,,,
1062,11020,Stop 40 Williamson Rd - South side,,-34.8121,138.64931,,http://www.adelaidemetro.com.au/stops/view/11020,,,,
1063,11021,Stop 53 Strathfield Tce - North side,,-34.81209,138.49535,,http://www.adelaidemetro.com.au/stops/view/11021,,,,
1075,11032,Stop 58 Murrell Rd - North side,,-34.8127752766837,138.673052644999,,http://www.adelaidemetro.com.au/stops/view/11032,,,,
1076,11033,Stop 51A Victoria Rd - North side,,-34.81556,138.50105,,http://www.adelaidemetro.com.au/stops/view/11033,,,,
1083,11040,Stop 59 Kelly Rd - West side,,-34.81435,138.67359,,http://www.adelaidemetro.com.au/stops/view/11040,,,,
1084,11041,Stop 40 Bridge Rd - East side,,-34.8121187156266,138.644630316248,,http://www.adelaidemetro.com.au/stops/view/11041,,,,
1090,11047,Stop 39G Williamson Rd - North side,,-34.81335,138.65207,,http://www.adelaidemetro.com.au/stops/view/11047,,,,
1091,11048,Stop 52 Nelson Rd - East side,,-34.8142024612421,138.660619020017,,http://www.adelaidemetro.com.au/stops/view/11048,,,,
1098,11055,Stop 51 Riverside Dr - West side,,-34.8140003011792,138.709977474758,,http://www.adelaidemetro.com.au/stops/view/11055,,,,
1099,11056,Stop 52 Nelson Rd - West side,,-34.8136563853356,138.66035159918,,http://www.adelaidemetro.com.au/stops/view/11056,,,,
1106,11063,Stop 51B Miller Av - North East side,,-34.81509,138.66002,,http://www.adelaidemetro.com.au/stops/view/11063,,,,
1107,11064,Stop 50 Riverside Dr - North West side,,-34.81539,138.70725,,http://www.adelaidemetro.com.au/stops/view/11064,,,,
1114,11071,Stop 51 Military Rd - East side,,-34.81533,138.49413,,http://www.adelaidemetro.com.au/stops/view/11071,,,,
1115,11072,Stop 52 Victoria Rd - West side,,-34.81287,138.50112,,http://www.adelaidemetro.com.au/stops/view/11072,,,,
1121,11078,Stop 61 Kelly Rd - West side,,-34.81717,138.67381,,http://www.adelaidemetro.com.au/stops/view/11078,,,,
1122,11079,Stop 39E Williamson Rd - North East side,,-34.816575,138.655609,,http://www.adelaidemetro.com.au/stops/view/11079,,,,
1129,11086,Stop 51 Carnarvon Tce - South East side,,-34.81695,138.49992,,http://www.adelaidemetro.com.au/stops/view/11086,,,,
1130,11087,Stop 46 Golden Grove Rd - West side,,-34.81713,138.69448,,http://www.adelaidemetro.com.au/stops/view/11087,,,,
1137,11094,Stop 61 Kelly Rd - East side,,-34.81776,138.67401,,http://www.adelaidemetro.com.au/stops/view/11094,,,,
1138,11095,Stop 58 Milne Rd - South side,,-34.817362,138.691853,,http://www.adelaidemetro.com.au/stops/view/11095,,,,
1145,11102,Stop 55 Milne Rd - North side,,-34.81787,138.68155,,http://www.adelaidemetro.com.au/stops/view/11102,,,,
1146,11103,Stop 50 Military Rd - East side,,-34.81803,138.49381,,http://www.adelaidemetro.com.au/stops/view/11103,,,,
1152,11109,Stop 39C Milne Rd - North side,,-34.8184,138.65203,,http://www.adelaidemetro.com.au/stops/view/11109,,,,
1153,11110,Stop 53 Milne Rd - South side,,-34.81844,138.67525,,http://www.adelaidemetro.com.au/stops/view/11110,,,,
1160,11117,Stop 39C Milne Rd - South side,,-34.81841,138.65186,,http://www.adelaidemetro.com.au/stops/view/11117,,,,
1161,11118,Stop 50 Carnarvon Tce - South East side,,-34.81865,138.49779,,http://www.adelaidemetro.com.au/stops/view/11118,,,,
1173,11129,Stop 50 Milne Rd - South West side,,-34.819206730629,138.659250945989,,http://www.adelaidemetro.com.au/stops/view/11129,,,,
1174,11130,Stop 51 Milne Rd - South West side,,-34.81935,138.65665,,http://www.adelaidemetro.com.au/stops/view/11130,,,,
1179,11134,Stop 49 Nelson Rd - West side,,-34.8196962591767,138.660937345568,,http://www.adelaidemetro.com.au/stops/view/11134,,,,
1180,11135,Stop 34 Main North Rd - South East side,,-34.8197290803474,138.622253338021,,http://www.adelaidemetro.com.au/stops/view/11135,,,,
1186,11141,Stop 47A Far View Cr - South West side,,-34.82034,138.70381,,http://www.adelaidemetro.com.au/stops/view/11141,,,,
1187,11142,Stop 49 Ladywood Rd - East side,,-34.818415297892,138.686913480147,,http://www.adelaidemetro.com.au/stops/view/11142,,,,
1194,11149,Stop 49 Carnarvon Tce - North West side,,-34.82073,138.49485,,http://www.adelaidemetro.com.au/stops/view/11149,,,,
1195,11150,Stop 51A North East Rd - North side,,-34.82071,138.72646,,http://www.adelaidemetro.com.au/stops/view/11150,,,,
1202,11157,Stop 50 North East Rd - South East side,,-34.8211778782735,138.717849056741,,http://www.adelaidemetro.com.au/stops/view/11157,,,,
1203,11158,Stop 51B North East Rd - North side,,-34.82108,138.729563,,http://www.adelaidemetro.com.au/stops/view/11158,,,,
1210,11165,Stop 49 Military Rd - South East side,,-34.82155,138.49234,,http://www.adelaidemetro.com.au/stops/view/11165,,,,
1211,11166,Stop 50 Hancock Rd - East side,,-34.8217441173762,138.718824155765,,http://www.adelaidemetro.com.au/stops/view/11166,,,,
1217,11172,Stop 39A Kesters Rd - North East side,,-34.80267,138.64291,,http://www.adelaidemetro.com.au/stops/view/11172,,,,
1218,11173,Stop 50 Hancock Rd - West side,,-34.82207,138.7187,,http://www.adelaidemetro.com.au/stops/view/11173,,,,
1225,11180,Stop 48 Ladywood Rd - West side,,-34.821236998121,138.686969831946,,http://www.adelaidemetro.com.au/stops/view/11180,,,,
1226,11181,Stop 48 North East Rd - North West side,,-34.82254,138.71122,,http://www.adelaidemetro.com.au/stops/view/11181,,,,
1233,11188,Stop 37 Bridge Rd - West side,,-34.82515,138.63481,,http://www.adelaidemetro.com.au/stops/view/11188,,,,
1234,11189,Stop 50 Perseverance Rd - South East side,,-34.82314,138.72928,,http://www.adelaidemetro.com.au/stops/view/11189,,,,
1242,11197,Stop 48 Nelson Rd - East side,,-34.8236625679891,138.661472336354,,http://www.adelaidemetro.com.au/stops/view/11197,,,,
1248,11203,Stop 47 Ladywood Rd - West side,,-34.8231796192441,138.686063877472,,http://www.adelaidemetro.com.au/stops/view/11203,,,,
1256,11211,Stop 37A Montague Rd - North West side,,-34.82412,138.63378,,http://www.adelaidemetro.com.au/stops/view/11211,,,,
1257,11212,Stop 38 Montague Rd - South side,,-34.82452,138.62464,,http://www.adelaidemetro.com.au/stops/view/11212,,,,
1264,11219,Stop 48 Military Rd - North West side,,-34.82457,138.49046,,http://www.adelaidemetro.com.au/stops/view/11219,,,,
1265,11220,Stop 39 Montague Rd - North East side,,-34.82438,138.61967,,http://www.adelaidemetro.com.au/stops/view/11220,,,,
1272,11227,Stop 37C Montague Rd - North side,,-34.82459,138.63659,,http://www.adelaidemetro.com.au/stops/view/11227,,,,
1273,11228,Stop 49 Hancock Rd - West side,,-34.8249918399848,138.718923584175,,http://www.adelaidemetro.com.au/stops/view/11228,,,,
1279,11234,Stop 37D Montague Rd - North side,,-34.82538,138.63964,,http://www.adelaidemetro.com.au/stops/view/11234,,,,
1287,11242,Stop 47 Military Rd - North West side,,-34.82584,138.4898,,http://www.adelaidemetro.com.au/stops/view/11242,,,,
1288,11243,Stop 47 Military Rd - South East side,,-34.82603,138.48992,,http://www.adelaidemetro.com.au/stops/view/11243,,,,
1295,11250,Stop 47 Baldock Rd - North side,,-34.82651,138.65851,,http://www.adelaidemetro.com.au/stops/view/11250,,,,
1303,11258,Stop 46 Nelson Rd - East side,,-34.8280414612795,138.66179400133,,http://www.adelaidemetro.com.au/stops/view/11258,,,,
1304,11259,Stop 37E Montague Rd - South side,,-34.82679,138.64362,,http://www.adelaidemetro.com.au/stops/view/11259,,,,
1310,11265,Stop 65 Kelly Rd - West side,,-34.82922,138.67477,,http://www.adelaidemetro.com.au/stops/view/11265,,,,
1311,11266,Stop 46 North East Rd - South East side,,-34.8273047722057,138.704553905843,,http://www.adelaidemetro.com.au/stops/view/11266,,,,
1318,11273,Stop 46 Nelson Rd - West side,,-34.8275475402773,138.66160689618,,http://www.adelaidemetro.com.au/stops/view/11273,,,,
1319,11274,Stop 45 Reservoir Rd - East side,,-34.82997,138.68784,,http://www.adelaidemetro.com.au/stops/view/11274,,,,
1326,11281,Stop 35A Quinlivan Rd - West side,,-34.828284,138.624366,,http://www.adelaidemetro.com.au/stops/view/11281,,,,
1327,11282,Stop 48 Hancock Rd - East side,,-34.828188,138.719379,,http://www.adelaidemetro.com.au/stops/view/11282,,,,
1339,11293,Stop 36A Montague Rd - North side,,-34.82779,138.64802,,http://www.adelaidemetro.com.au/stops/view/11293,,,,
1340,11294,Stop 36A Montague Rd - South side,,-34.82808,138.64843,,http://www.adelaidemetro.com.au/stops/view/11294,,,,
1355,11309,Stop 32 Montague Rd - North side,,-34.82919,138.66379,,http://www.adelaidemetro.com.au/stops/view/11309,,,,
1362,11316,Stop 46 Mcintyre Rd - West side,,-34.82966,138.67994,,http://www.adelaidemetro.com.au/stops/view/11316,,,,
1363,11317,Stop 40A Beovich Rd - North side,,-34.82978,138.64132,,http://www.adelaidemetro.com.au/stops/view/11317,,,,
1370,11324,Stop 46 Fletcher Rd - West side,,-34.83009,138.49598,,http://www.adelaidemetro.com.au/stops/view/11324,,,,
1371,11325,Stop 46 Mcintyre Rd - East side,,-34.8299,138.68027,,http://www.adelaidemetro.com.au/stops/view/11325,,,,
1378,11332,Stop 35 Quinlivan Rd - South East side,,-34.83028,138.62283,,http://www.adelaidemetro.com.au/stops/view/11332,,,,
1379,11333,Stop 45 Nelson Rd - West side,,-34.8302725242628,138.661792412934,,http://www.adelaidemetro.com.au/stops/view/11333,,,,
1386,11340,Stop 36 Bridge Rd - West side,,-34.8304612455101,138.63006031315,,http://www.adelaidemetro.com.au/stops/view/11340,,,,
1393,11347,Zone A Tea Tree Plaza Interchange - West side,,-34.831325964,138.6943084,,http://www.adelaidemetro.com.au/stops/view/11347,,,,
1394,11348,Stop 47 Hancock Rd - West side,,-34.8309926737992,138.7194479813,,http://www.adelaidemetro.com.au/stops/view/11348,,,,
1401,11355,Stop 31 Main North Rd - South East side,,-34.8317017030993,138.612234712591,,http://www.adelaidemetro.com.au/stops/view/11355,,,,
1405,11357,Stop 46 Smart Rd - North side,,-34.831772103005,138.717424770201,,http://www.adelaidemetro.com.au/stops/view/11357,,,,
1412,11364,Stop 34 Pratt Av - North side,,-34.83209,138.62151,,http://www.adelaidemetro.com.au/stops/view/11364,,,,
1413,11365,Stop 34 Pratt Av - South side,,-34.832,138.62097,,http://www.adelaidemetro.com.au/stops/view/11365,,,,
1420,11372,Stop 44 Nelson Rd - East side,,-34.83417,138.66233,,http://www.adelaidemetro.com.au/stops/view/11372,,,,
1427,11379,Stop 43D Smart Rd - North side,,-34.83256,138.70317,,http://www.adelaidemetro.com.au/stops/view/11379,,,,
1428,11380,Stop 43D Smart Rd - South side,,-34.8327197589429,138.702778869088,,http://www.adelaidemetro.com.au/stops/view/11380,,,,
1435,11387,Stop 47 Perseverance Rd - West side,,-34.83281,138.72585,,http://www.adelaidemetro.com.au/stops/view/11387,,,,
1436,11388,Stop 43C Smart Rd - South side,,-34.83283,138.7008,,http://www.adelaidemetro.com.au/stops/view/11388,,,,
1443,11395,Stop 43B Smart Rd - South side,,-34.83311,138.69594,,http://www.adelaidemetro.com.au/stops/view/11395,,,,
1452,11401,Stop 42A Smart Rd - South side,,-34.8334703650836,138.690435648149,,http://www.adelaidemetro.com.au/stops/view/11401,,,,
1456,11404,Stop 45C Military Rd - North West side,,-34.83363,138.48599,,http://www.adelaidemetro.com.au/stops/view/11404,,,,
1457,11405,Stop 30 Main North Rd - East side,,-34.8335625780541,138.610890893756,,http://www.adelaidemetro.com.au/stops/view/11405,,,,
1463,11410,Stop 44 Wright Rd - South side,,-34.8339412974974,138.681623239452,,http://www.adelaidemetro.com.au/stops/view/11410,,,,
1469,11416,Stop 42A Wright Rd - South side,,-34.83417,138.67655,,http://www.adelaidemetro.com.au/stops/view/11416,,,,
1470,11417,Stop 41 Wright Rd - North side,,-34.83423,138.67298,,http://www.adelaidemetro.com.au/stops/view/11417,,,,
1475,11421,Stop 42 Tolley Rd - West side,,-34.83459,138.70713,,http://www.adelaidemetro.com.au/stops/view/11421,,,,
1476,11422,Stop 44C Hargrave St - North side,,-34.83462,138.48864,,http://www.adelaidemetro.com.au/stops/view/11422,,,,
1480,11425,Stop 40 North East Rd - West side,,-34.8349308009371,138.68131312344,,http://www.adelaidemetro.com.au/stops/view/11425,,,,
1481,11426,Stop 46 Perseverance Rd - East side,,-34.83491,138.72562,,http://www.adelaidemetro.com.au/stops/view/11426,,,,
1488,11433,Stop 42 Wright Rd - North side,,-34.83518,138.65736,,http://www.adelaidemetro.com.au/stops/view/11433,,,,
1489,11434,Stop 42 Wright Rd - South side,,-34.83535,138.65615,,http://www.adelaidemetro.com.au/stops/view/11434,,,,
1496,11441,Stop 42 Reservoir Rd - West side,,-34.83467,138.68795,,http://www.adelaidemetro.com.au/stops/view/11441,,,,
1501,11445,Stop 39 Flockhart Av - South East side,,-34.83765,138.6708,,http://www.adelaidemetro.com.au/stops/view/11445,,,,
1502,11446,Stop 34A Walkleys Rd - West side,,-34.83665,138.64524,,http://www.adelaidemetro.com.au/stops/view/11446,,,,
3,10003,Stop 93 Alawoona Rd - North West side,,-34.66324,138.70171,,http://www.adelaidemetro.com.au/stops/view/10003,,,,
6,10006,Stop 91 Carcoola Rd - South East side,,-34.66151,138.70559,,http://www.adelaidemetro.com.au/stops/view/10006,,,,
14,10014,Stop 76 President Av - West side,,-34.6676153584776,138.667939203326,,http://www.adelaidemetro.com.au/stops/view/10014,,,,
17,10017,Stop 75 President Av - East side,,-34.669431590146,138.666946476489,,http://www.adelaidemetro.com.au/stops/view/10017,,,,
22,10022,Stop 77 Curtis Rd - North East side,,-34.6691872101082,138.673079620199,,http://www.adelaidemetro.com.au/stops/view/10022,,,,
25,10025,Stop 78 Curtis Rd - North side,,-34.6702696402757,138.675472228588,,http://www.adelaidemetro.com.au/stops/view/10025,,,,
30,10030,Stop 78A Curtis Rd - South side,,-34.67108,138.67706,,http://www.adelaidemetro.com.au/stops/view/10030,,,,
33,10033,Stop 86 Maltarra Rd - North West side,,-34.6709095150467,138.700077381251,,http://www.adelaidemetro.com.au/stops/view/10033,,,,
38,10038,Stop 78B Peachey Rd - West side,,-34.67375,138.6779,,http://www.adelaidemetro.com.au/stops/view/10038,,,,
41,10041,Stop 84 Maltarra Rd - North West side,,-34.6754314479618,138.697176023295,,http://www.adelaidemetro.com.au/stops/view/10041,,,,
49,10049,Stop 82 Mingari St - South East side,,-34.6772,138.69504,,http://www.adelaidemetro.com.au/stops/view/10049,,,,
52,10052,Stop 89 Craigmore Rd - North side,,-34.6808431537633,138.700054503668,,http://www.adelaidemetro.com.au/stops/view/10052,,,,
55,10054,Stop 79H Coventry Rd - North West side,,-34.6800315694616,138.681105568429,,http://www.adelaidemetro.com.au/stops/view/10054,,,,
60,10057,Stop 81C Main North Rd - East side,,-34.6802945164008,138.695675945018,,http://www.adelaidemetro.com.au/stops/view/10057,,,,
63,10059,Stop 81C Main North Rd - West side,,-34.68073,138.69494,,http://www.adelaidemetro.com.au/stops/view/10059,,,,
66,10062,Zone B Smithfield Interchange,,-34.682129415849,138.68727041059,,http://www.adelaidemetro.com.au/stops/view/10062,,,,
74,10067,Stop 81B Main North Rd - East side,,-34.6828213023123,138.694096565891,,http://www.adelaidemetro.com.au/stops/view/10067,,,,
79,10072,Stop 87 Craigmore Rd - North side,,-34.6838065903967,138.706944714789,,http://www.adelaidemetro.com.au/stops/view/10072,,,,
82,10075,Stop 89 Park Lake Bvd - North West side,,-34.68423,138.70041,,http://www.adelaidemetro.com.au/stops/view/10075,,,,
87,10080,Stop 92 Park Lake Bvd - East side,,-34.69055,138.69917,,http://www.adelaidemetro.com.au/stops/view/10080,,,,
93,10086,Stop 85 Craigmore Rd - South side,,-34.6859723873499,138.71167193726,,http://www.adelaidemetro.com.au/stops/view/10086,,,,
96,10088,Stop 78 Main North Rd - West side,,-34.687856,138.690559,,http://www.adelaidemetro.com.au/stops/view/10088,,,,
104,10096,Stop 78 Uley Rd - North East side,,-34.6896652158516,138.693010954385,,http://www.adelaidemetro.com.au/stops/view/10096,,,,
107,10099,Stop 84 Adams Rd - East side,,-34.6880939211872,138.712190801564,,http://www.adelaidemetro.com.au/stops/view/10099,,,,
110,10102,Stop 77 Hamblynn Rd - North West side,,-34.6913580552173,138.693754131654,,http://www.adelaidemetro.com.au/stops/view/10102,,,,
115,10107,Stop 76 Hamblynn Rd - North West side,,-34.6927035399476,138.692911562512,,http://www.adelaidemetro.com.au/stops/view/10107,,,,
118,10110,Stop 76 Hamblynn Rd - South East side,,-34.6932630379495,138.692743773628,,http://www.adelaidemetro.com.au/stops/view/10110,,,,
123,10115,Stop 76C Hanson Rd - South East side,,-34.695161,138.700356,,http://www.adelaidemetro.com.au/stops/view/10115,,,,
126,10118,Stop 75 Hamblynn Rd - North East side,,-34.6953758877381,138.692257279893,,http://www.adelaidemetro.com.au/stops/view/10118,,,,
134,10126,Stop 70A Easton Av - West side,,-34.6957190261284,138.662341716299,,http://www.adelaidemetro.com.au/stops/view/10126,,,,
142,10134,Stop 72 Woodford Rd - South side,,-34.699041876851,138.681986047166,,http://www.adelaidemetro.com.au/stops/view/10134,,,,
145,10137,Stop 73 Midway Rd - North side,,-34.7002081942627,138.685019996653,,http://www.adelaidemetro.com.au/stops/view/10137,,,,
150,10142,Stop 70 Easton Av - East side,,-34.6990834476192,138.661201529543,,http://www.adelaidemetro.com.au/stops/view/10142,,,,
153,10145,Stop 79 Blair Park Dr - East side,,-34.6995364731884,138.710956336426,,http://www.adelaidemetro.com.au/stops/view/10145,,,,
158,10150,Stop 76 Hanson Rd - North West side,,-34.7005748839356,138.696464952953,,http://www.adelaidemetro.com.au/stops/view/10150,,,,
161,10153,Stop 69  Womma Rd - North side,,-34.7005182729861,138.663470269018,,http://www.adelaidemetro.com.au/stops/view/10153,,,,
166,10158,Stop 78 Blair Park Dr - East side,,-34.7016426462459,138.710007001775,,http://www.adelaidemetro.com.au/stops/view/10158,,,,
169,10161,Stop 78 Blair Park Dr - West side,,-34.7020968726788,138.709787170679,,http://www.adelaidemetro.com.au/stops/view/10161,,,,
172,10164,Stop 72 Midway Rd - West side,,-34.705001315956,138.6913294235,,http://www.adelaidemetro.com.au/stops/view/10164,,,,
177,10169,Stop 69 Womma Rd - South West side,,-34.7007469212825,138.663346934559,,http://www.adelaidemetro.com.au/stops/view/10169,,,,
180,10172,Stop 77 Blair Park Dr - West side,,-34.7045483461099,138.708315536137,,http://www.adelaidemetro.com.au/stops/view/10172,,,,
185,10177,Stop 73A Campbell Rd - North East side,,-34.7060381178876,138.697866067618,,http://www.adelaidemetro.com.au/stops/view/10177,,,,
188,10180,Stop 70 Yorktown Rd - South side,,-34.7073477689825,138.687226223183,,http://www.adelaidemetro.com.au/stops/view/10180,,,,
193,10185,Stop 69 Yorktown Rd - North West side,,-34.70782,138.68529,,http://www.adelaidemetro.com.au/stops/view/10185,,,,
196,10188,Stop 76 Blair Park Dr - East side,,-34.7071065241402,138.707465836262,,http://www.adelaidemetro.com.au/stops/view/10188,,,,
201,10193,Stop 68 Yorktown Rd - West side,,-34.71028,138.68358,,http://www.adelaidemetro.com.au/stops/view/10193,,,,
204,10196,Stop 67 Woodford Rd - South East side,,-34.70892,138.6733,,http://www.adelaidemetro.com.au/stops/view/10196,,,,
207,10199,Stop 70 Seaborough Rd - North side,,-34.71299,138.69289,,http://www.adelaidemetro.com.au/stops/view/10199,,,,
212,10204,Stop 70 Seaborough Rd - South side,,-34.71306,138.69245,,http://www.adelaidemetro.com.au/stops/view/10204,,,,
215,10207,Stop 69 Midway Rd - East side,,-34.71291,138.68918,,http://www.adelaidemetro.com.au/stops/view/10207,,,,
220,10212,Stop 66 Woodford Rd - North West side,,-34.7120714087874,138.671103880772,,http://www.adelaidemetro.com.au/stops/view/10212,,,,
223,10215,Stop 67 Shillabeer Rd - North side,,-34.71554,138.6841,,http://www.adelaidemetro.com.au/stops/view/10215,,,,
228,10220,Stop 68 Midway Rd - West side,,-34.71632,138.68682,,http://www.adelaidemetro.com.au/stops/view/10220,,,,
231,10223,Zone A Elizabeth City Centre - North West side,,-34.71669,138.66935,,http://www.adelaidemetro.com.au/stops/view/10223,,,,
239,10231,Zone B Elizabeth Interchange,,-34.71744,138.66487,,http://www.adelaidemetro.com.au/stops/view/10231,,,,
247,10239,Stop 64 Kinkaid Rd - North East side,,-34.71964,138.67942,,http://www.adelaidemetro.com.au/stops/view/10239,,,,
267,10258,Stop 60 Midway Rd - East side,,-34.72664,138.67929,,http://www.adelaidemetro.com.au/stops/view/10258,,,,
272,10263,Stop 59 Midway Rd - North West side,,-34.72792,138.6776,,http://www.adelaidemetro.com.au/stops/view/10263,,,,
275,10266,Stop 60 Philip Hwy - North West side,,-34.7296196371151,138.664066984873,,http://www.adelaidemetro.com.au/stops/view/10266,,,,
280,10271,Stop 58 Main North Rd - West side,,-34.732553,138.675407,,http://www.adelaidemetro.com.au/stops/view/10271,,,,
283,10274,Stop 59 Philip Hwy - North West side,,-34.7325364857286,138.662086790654,,http://www.adelaidemetro.com.au/stops/view/10274,,,,
291,10282,Stop 57 Main North Rd - West side,,-34.7347,138.67549,,http://www.adelaidemetro.com.au/stops/view/10282,,,,
294,10285,Stop 58A Blackburn Rd - South East side,,-34.73414,138.68212,,http://www.adelaidemetro.com.au/stops/view/10285,,,,
299,10290,Stop 57B Burgate St - East side,,-34.7358902584164,138.670719045261,,http://www.adelaidemetro.com.au/stops/view/10290,,,,
302,10293,Stop 64 Diment Rd - North East side,,-34.7362,138.62025,,http://www.adelaidemetro.com.au/stops/view/10293,,,,
4,10004,Stop 93 Alawoona Rd - South East side,,-34.66366,138.70166,,http://www.adelaidemetro.com.au/stops/view/10004,,,,
5,10005,Stop 91 Carcoola Rd - North West side,,-34.6614370056008,138.705493365841,,http://www.adelaidemetro.com.au/stops/view/10005,,,,
11,10011,Stop 89 Carcoola Rd - South East side,,-34.6663,138.70307,,http://www.adelaidemetro.com.au/stops/view/10011,,,,
12,10012,Stop 88 Noora Cr - South East side,,-34.66734,138.70077,,http://www.adelaidemetro.com.au/stops/view/10012,,,,
19,10019,Stop 87 Maltarra Rd - South East side,,-34.6684659296038,138.701314331209,,http://www.adelaidemetro.com.au/stops/view/10019,,,,
20,10020,Stop 75 President Av - West side,,-34.6701350810759,138.666368794238,,http://www.adelaidemetro.com.au/stops/view/10020,,,,
27,10027,Stop 74H President Av - East side,,-34.671818,138.66693,,http://www.adelaidemetro.com.au/stops/view/10027,,,,
28,10028,Stop 96 Alawoona Rd - South East side,,-34.672480192878,138.695200968361,,http://www.adelaidemetro.com.au/stops/view/10028,,,,
35,10035,Stop 97 Myall Av - North East side,,-34.6750964503942,138.694059063348,,http://www.adelaidemetro.com.au/stops/view/10035,,,,
36,10036,Stop 85 Maltarra Rd - South East side,,-34.67307,138.6989,,http://www.adelaidemetro.com.au/stops/view/10036,,,,
43,10043,Stop 83 Maltarra Rd - North West side,,-34.6754163399317,138.694987503501,,http://www.adelaidemetro.com.au/stops/view/10043,,,,
50,10050,Stop 82 Mingari St - North West side,,-34.6768937003031,138.694995693258,,http://www.adelaidemetro.com.au/stops/view/10050,,,,
51,10051,Stop 70 Old Port Wakefield Rd - South West side,,-34.68145,138.56511,,http://www.adelaidemetro.com.au/stops/view/10051,,,,
59,10056,Stop 80 Anderson Wk - North side,,-34.6796781452012,138.683676405969,,http://www.adelaidemetro.com.au/stops/view/10056,,,,
65,10061,Stop 88 Craigmore Rd - North side,,-34.6821256625326,138.703076221273,,http://www.adelaidemetro.com.au/stops/view/10061,,,,
72,10065,Stop 79J Coventry Rd - South East side,,-34.6829030286883,138.67945638079,,http://www.adelaidemetro.com.au/stops/view/10065,,,,
80,10073,Stop 80M Warooka Cr - South West side,,-34.6842691590774,138.688502717564,,http://www.adelaidemetro.com.au/stops/view/10073,,,,
81,10074,Stop 80M Warooka Cr - North East side,,-34.6843219980044,138.688830641009,,http://www.adelaidemetro.com.au/stops/view/10074,,,,
102,10094,Stop 78 Uley Rd - South West side,,-34.6897,138.69261,,http://www.adelaidemetro.com.au/stops/view/10094,,,,
109,10101,Stop 73 Peachey Rd - South East side,,-34.6900227432392,138.669488255583,,http://www.adelaidemetro.com.au/stops/view/10101,,,,
116,10108,Stop 77 Adams Rd - West side,,-34.6913407695169,138.709928910889,,http://www.adelaidemetro.com.au/stops/view/10108,,,,
117,10109,Stop 77D Uley Rd - North East side,,-34.6926591531575,138.699919447866,,http://www.adelaidemetro.com.au/stops/view/10109,,,,
124,10116,Stop 75 Hamblynn Rd - North West side,,-34.6952425019774,138.692041265886,,http://www.adelaidemetro.com.au/stops/view/10116,,,,
125,10117,Stop 76F Adams Rd - West side,,-34.6938588087258,138.708308465897,,http://www.adelaidemetro.com.au/stops/view/10117,,,,
132,10124,Stop 74A Hamblynn Rd - South West side,,-34.6971493406141,138.691964753118,,http://www.adelaidemetro.com.au/stops/view/10124,,,,
133,10125,Stop 74A Hamblynn Rd - South East side,,-34.6971782856385,138.692142113234,,http://www.adelaidemetro.com.au/stops/view/10125,,,,
140,10132,Stop 72 Woodford Rd - North side,,-34.6989828584396,138.682209055148,,http://www.adelaidemetro.com.au/stops/view/10132,,,,
147,10139,Stop 76A Hanson Rd - South West side,,-34.69865,138.69801,,http://www.adelaidemetro.com.au/stops/view/10139,,,,
148,10140,Stop 73 Midway Rd - South side,,-34.7002144496906,138.68469114741,,http://www.adelaidemetro.com.au/stops/view/10140,,,,
156,10148,Stop 73A Midway Rd - North side,,-34.7016001193669,138.688278325408,,http://www.adelaidemetro.com.au/stops/view/10148,,,,
163,10155,Stop 73 Midway Rd - South West side,,-34.7025664298546,138.690026637119,,http://www.adelaidemetro.com.au/stops/view/10155,,,,
164,10156,Stop 73 Midway Rd - North East side,,-34.7025205050494,138.690226852374,,http://www.adelaidemetro.com.au/stops/view/10156,,,,
171,10163,Stop 72 Midway Rd - East side,,-34.7050026504112,138.691512236197,,http://www.adelaidemetro.com.au/stops/view/10163,,,,
178,10170,Stop 68 Peachey Rd - North East side,,-34.7045,138.66371,,http://www.adelaidemetro.com.au/stops/view/10170,,,,
179,10171,Stop 66 Port Wakefield Rd - South West side,,-34.7122397296741,138.575455163314,,http://www.adelaidemetro.com.au/stops/view/10171,,,,
186,10178,Stop 71 Yorktown Rd - South side,,-34.7073367550304,138.690295705006,,http://www.adelaidemetro.com.au/stops/view/10178,,,,
187,10179,Stop 72 Yorktown Rd - South East side,,-34.7073884151041,138.693697251284,,http://www.adelaidemetro.com.au/stops/view/10179,,,,
194,10186,Stop 76 Blair Park Dr - West side,,-34.7072295464986,138.707327971307,,http://www.adelaidemetro.com.au/stops/view/10186,,,,
195,10187,Stop 69 Yorktown Rd - South East side,,-34.7080173505181,138.685514031837,,http://www.adelaidemetro.com.au/stops/view/10187,,,,
202,10194,Stop 67 Peachey Rd - North East side,,-34.7073,138.66305,,http://www.adelaidemetro.com.au/stops/view/10194,,,,
203,10195,Stop 67 Peachey Rd - South West side,,-34.70723,138.66273,,http://www.adelaidemetro.com.au/stops/view/10195,,,,
209,10201,Stop 73 Turner Dr - North side,,-34.71238,138.69954,,http://www.adelaidemetro.com.au/stops/view/10201,,,,
210,10202,Stop 74 Turner Dr - North West side,,-34.71146,138.70312,,http://www.adelaidemetro.com.au/stops/view/10202,,,,
217,10209,Stop 71 Seaborough Rd - North side,,-34.7137,138.69488,,http://www.adelaidemetro.com.au/stops/view/10209,,,,
218,10210,Stop 71 Seaborough Rd - South side,,-34.71366,138.69457,,http://www.adelaidemetro.com.au/stops/view/10210,,,,
225,10217,Stop 65C Ifould Rd - South side,,-34.71541,138.67945,,http://www.adelaidemetro.com.au/stops/view/10217,,,,
226,10218,Stop 65 Port Wakefield Rd - South West side,,-34.72031,138.57817,,http://www.adelaidemetro.com.au/stops/view/10218,,,,
233,10225,Zone C Elizabeth City Centre - North West side,,-34.71682,138.66838,,http://www.adelaidemetro.com.au/stops/view/10225,,,,
234,10226,Stop 65 Port Wakefield Rd - North East side,,-34.72045,138.57865,,http://www.adelaidemetro.com.au/stops/view/10226,,,,
240,10232,Zone C Elizabeth Interchange,,-34.717184,138.665201,,http://www.adelaidemetro.com.au/stops/view/10232,,,,
241,10233,Stop 65 Yorktown Rd - North West side,,-34.718,138.67861,,http://www.adelaidemetro.com.au/stops/view/10233,,,,
248,10240,Stop 64 Kinkaid Rd - South West side,,-34.71978,138.67942,,http://www.adelaidemetro.com.au/stops/view/10240,,,,
253,10244,Stop 63 Philip Hwy - East side,,-34.7213955882407,138.669665060659,,http://www.adelaidemetro.com.au/stops/view/10244,,,,
254,10245,Stop 62 Midway Rd - West side,,-34.72218,138.68304,,http://www.adelaidemetro.com.au/stops/view/10245,,,,
261,10252,Stop 64 Port Wakefield Rd - North East side,,-34.72654,138.58075,,http://www.adelaidemetro.com.au/stops/view/10252,,,,
262,10253,Stop 61 Midway Rd - North West side,,-34.72484,138.68057,,http://www.adelaidemetro.com.au/stops/view/10253,,,,
269,10260,Stop 61 Philip Hwy - North West side,,-34.72697,138.66574,,http://www.adelaidemetro.com.au/stops/view/10260,,,,
277,10268,Stop 58A Fairfield Rd - North West side,,-34.72952,138.67382,,http://www.adelaidemetro.com.au/stops/view/10268,,,,
278,10269,Stop 58A Fairfield Rd - South East side,,-34.72984,138.67387,,http://www.adelaidemetro.com.au/stops/view/10269,,,,
285,10276,Stop 59 Philip Hwy - South East side,,-34.7330463952563,138.662246187579,,http://www.adelaidemetro.com.au/stops/view/10276,,,,
292,10283,Stop 58A Blackburn Rd - North West side,,-34.7341,138.68196,,http://www.adelaidemetro.com.au/stops/view/10283,,,,
293,10284,Stop 65 Bolivar Rd - North West side,,-34.7355667945138,138.617756190201,,http://www.adelaidemetro.com.au/stops/view/10284,,,,
300,10291,Stop 66 Bolivar Rd - North West side,,-34.7375668079943,138.615956924251,,http://www.adelaidemetro.com.au/stops/view/10291,,,,
602,10584,Stop 61 Canterbury Dr - West side,,-34.7675419544115,138.676325889229,,http://www.adelaidemetro.com.au/stops/view/10584,,,,
607,10589,Stop 47B Cross Keys Rd - East side,,-34.770728693524,138.650000963312,,http://www.adelaidemetro.com.au/stops/view/10589,,,,
610,10592,Stop 48A Main North Rd - North West side,,-34.7690621860768,138.6667254115,,http://www.adelaidemetro.com.au/stops/view/10592,,,,
615,10597,Stop 45 Salisbury Hwy - West side,,-34.7692635701729,138.635141132052,,http://www.adelaidemetro.com.au/stops/view/10597,,,,
618,10600,Stop 75 Target Hill Rd - South side,,-34.770447727934,138.705520080142,,http://www.adelaidemetro.com.au/stops/view/10600,,,,
621,10603,Stop 47C Park Tce - North East side,,-34.7711831640515,138.656177653921,,http://www.adelaidemetro.com.au/stops/view/10603,,,,
624,10605,Stop 77 Golden Grove Rd - South side,,-34.76845,138.7174,,http://www.adelaidemetro.com.au/stops/view/10605,,,,
631,10610,Stop 44 Salisbury Hwy - South East side,,-34.7719094667484,138.633060923094,,http://www.adelaidemetro.com.au/stops/view/10610,,,,
635,10613,Stop 47B Park Tce - North East side,,-34.7729933590624,138.659131831372,,http://www.adelaidemetro.com.au/stops/view/10613,,,,
639,10615,Stop 47A Cross Keys Rd - West side,,-34.7732662310265,138.647542704266,,http://www.adelaidemetro.com.au/stops/view/10615,,,,
642,10618,Stop 42 Martins Rd - East side,,-34.7724108025873,138.616743316933,,http://www.adelaidemetro.com.au/stops/view/10618,,,,
651,10626,Stop 47A Park Tce - North East side,,-34.77400876685,138.660879067205,,http://www.adelaidemetro.com.au/stops/view/10626,,,,
657,10631,Stop 39B Jamison St - North East side,,-34.7744056689894,138.602647051396,,http://www.adelaidemetro.com.au/stops/view/10631,,,,
663,10636,Stop 47 Smith St - North side,,-34.7753078425558,138.66293426954,,http://www.adelaidemetro.com.au/stops/view/10636,,,,
666,10639,Stop 45C Buckingham Dr - North East side,,-34.7755102158148,138.671476061538,,http://www.adelaidemetro.com.au/stops/view/10639,,,,
669,10642,Stop 47 Main North Rd - South East side,,-34.775433456862,138.661542311838,,http://www.adelaidemetro.com.au/stops/view/10642,,,,
674,10647,Stop 42 Salisbury Hwy - West side,,-34.7758631569938,138.629177206472,,http://www.adelaidemetro.com.au/stops/view/10647,,,,
677,10650,Stop 46 Gloucester Rd - East side,,-34.7770377820765,138.668127177269,,http://www.adelaidemetro.com.au/stops/view/10650,,,,
682,10655,Stop 40A Lavender Dr - South East side,,-34.77758,138.61564,,http://www.adelaidemetro.com.au/stops/view/10655,,,,
685,10658,Stop 45B Buckingham Dr - South West side,,-34.7784995724034,138.673730722947,,http://www.adelaidemetro.com.au/stops/view/10658,,,,
690,10663,Stop 41 Salisbury Hwy - South East side,,-34.7780080374725,138.627610490418,,http://www.adelaidemetro.com.au/stops/view/10663,,,,
693,10666,Stop 70 The Golden Wy - West side,,-34.7783728891714,138.7120240733,,http://www.adelaidemetro.com.au/stops/view/10666,,,,
698,10671,Stop 46 Main North Rd - South East side,,-34.7786785876958,138.658630136343,,http://www.adelaidemetro.com.au/stops/view/10671,,,,
704,10677,Stop 46A Frost Rd - South West side,,-34.7789362657468,138.647191849202,,http://www.adelaidemetro.com.au/stops/view/10677,,,,
709,10682,Stop 46A Frost Rd - North East side,,-34.7790657215182,138.647634706462,,http://www.adelaidemetro.com.au/stops/view/10682,,,,
712,10685,Stop 46A Smith Rd - South side,,-34.7786093848392,138.668029133708,,http://www.adelaidemetro.com.au/stops/view/10685,,,,
717,10690,Stop 68 Atlantis Dr - South East side,,-34.7801521879274,138.706254403181,,http://www.adelaidemetro.com.au/stops/view/10690,,,,
720,10693,Stop 67 Atlantis Dr - East side,,-34.7805928777197,138.702907800605,,http://www.adelaidemetro.com.au/stops/view/10693,,,,
725,10698,Stop 40 Salisbury Hwy - East side,,-34.7810815365033,138.624876118276,,http://www.adelaidemetro.com.au/stops/view/10698,,,,
728,10701,Stop 45 Bridge Rd - North West side,,-34.7821963262194,138.671088665002,,http://www.adelaidemetro.com.au/stops/view/10701,,,,
736,10709,Stop 37 Shepherdson Rd - North East side,,-34.7829565946219,138.610183643074,,http://www.adelaidemetro.com.au/stops/view/10709,,,,
739,10712,Stop 45A Frost Rd - South West side,,-34.7822052827888,138.652506818923,,http://www.adelaidemetro.com.au/stops/view/10712,,,,
744,10717,Stop 39 Salisbury Hwy - East side,,-34.7832018552806,138.622985744482,,http://www.adelaidemetro.com.au/stops/view/10717,,,,
747,10720,Stop 44B Bridge Rd - East side,,-34.7841690606586,138.669436931132,,http://www.adelaidemetro.com.au/stops/view/10720,,,,
752,10725,Stop 68 The Golden Wy - East side,,-34.78326,138.70854,,http://www.adelaidemetro.com.au/stops/view/10725,,,,
755,10728,Stop 65 Atlantis Dr - East side,,-34.7858,138.69958,,http://www.adelaidemetro.com.au/stops/view/10728,,,,
760,10733,Stop 67 The Golden Wy - South East side,,-34.78484,138.70703,,http://www.adelaidemetro.com.au/stops/view/10733,,,,
769,10741,Stop 62 Victoria Rd - West side,,-34.78559,138.50122,,http://www.adelaidemetro.com.au/stops/view/10741,,,,
772,10744,Stop 57 John Rd - North side,,-34.78569,138.71639,,http://www.adelaidemetro.com.au/stops/view/10744,,,,
778,10749,Stop 66 The Golden Wy - North West side,,-34.78653,138.70294,,http://www.adelaidemetro.com.au/stops/view/10749,,,,
781,10752,Stop 65 Atlantis Dr - West side,,-34.78542,138.69976,,http://www.adelaidemetro.com.au/stops/view/10752,,,,
786,10757,Stop 56 Golden Grove Rd - North West side,,-34.78753,138.71552,,http://www.adelaidemetro.com.au/stops/view/10757,,,,
789,10760,Stop 44 Main North Rd - East side,,-34.78776,138.65057,,http://www.adelaidemetro.com.au/stops/view/10760,,,,
794,10765,Stop 36A Oleander Dr - East side,,-34.78889,138.60783,,http://www.adelaidemetro.com.au/stops/view/10765,,,,
797,10768,Stop 60 Bicentenial Dr - North West side,,-34.78762,138.70698,,http://www.adelaidemetro.com.au/stops/view/10768,,,,
800,10771,Stop 65 The Golden Wy - East side,,-34.78821,138.70164,,http://www.adelaidemetro.com.au/stops/view/10771,,,,
805,10776,Stop 60A Bicentenial Dr - South East side,,-34.78889,138.70547,,http://www.adelaidemetro.com.au/stops/view/10776,,,,
808,10779,Stop 43 Main North Rd - East side,,-34.7896974133494,138.649077566766,,http://www.adelaidemetro.com.au/stops/view/10779,,,,
814,10784,Stop 43D Bridge Rd - West side,,-34.79181,138.66241,,http://www.adelaidemetro.com.au/stops/view/10784,,,,
820,10789,Stop 44B Northbri Av - West side,,-34.7904,138.65435,,http://www.adelaidemetro.com.au/stops/view/10789,,,,
823,10792,Zone C Golden Grove Village Interchange,,-34.790885,138.693367,,http://www.adelaidemetro.com.au/stops/view/10792,,,,
832,10797,Stop 36 Salisbury Hwy - North West side,,-34.7914268953926,138.615246967384,,http://www.adelaidemetro.com.au/stops/view/10797,,,,
845,10810,Stop 44 Northbri Av - South East side,,-34.79345,138.65111,,http://www.adelaidemetro.com.au/stops/view/10810,,,,
848,10813,Stop 35 Salisbury Hwy - North West side,,-34.79319,138.61368,,http://www.adelaidemetro.com.au/stops/view/10813,,,,
854,10818,Stop 60 Victoria Rd - West side,,-34.793943992362,138.501292609683,,http://www.adelaidemetro.com.au/stops/view/10818,,,,
857,10821,Stop 65 Yatala Vale Rd - North side,,-34.79471,138.7297,,http://www.adelaidemetro.com.au/stops/view/10821,,,,
862,10826,Stop 53 Golden Grove Rd - West side,,-34.79472,138.70919,,http://www.adelaidemetro.com.au/stops/view/10826,,,,
865,10829,Stop 67 Yatala Vale Rd - South side,,-34.79463,138.72338,,http://www.adelaidemetro.com.au/stops/view/10829,,,,
871,10834,Stop 68 Yatala Vale Rd - South side,,-34.79511,138.71857,,http://www.adelaidemetro.com.au/stops/view/10834,,,,
874,10837,Stop 64 Yatala Vale Rd - North side,,-34.79608,138.7329,,http://www.adelaidemetro.com.au/stops/view/10837,,,,
883,10845,Stop 43B Mcintyre Rd - South side,,-34.79699,138.65525,,http://www.adelaidemetro.com.au/stops/view/10845,,,,
888,10850,Stop 59 Victoria Rd - West side,,-34.7964902111869,138.501253684201,,http://www.adelaidemetro.com.au/stops/view/10850,,,,
899,10861,Stop 59 Hancock Rd - West side,,-34.79686,138.71678,,http://www.adelaidemetro.com.au/stops/view/10861,,,,
904,10866,Stop 63B Yatala Vale Rd - North side,,-34.79736,138.73624,,http://www.adelaidemetro.com.au/stops/view/10866,,,,
1506,11449,Stop 33 Bridge Rd - West side,,-34.8371080981099,138.624598195889,,http://www.adelaidemetro.com.au/stops/view/11449,,,,
1507,11450,Stop 40 Brougham Dr - South East side,,-34.8374338311048,138.652562767807,,http://www.adelaidemetro.com.au/stops/view/11450,,,,
1514,11457,Stop 39 North East Rd - East side,,-34.83735,138.67893,,http://www.adelaidemetro.com.au/stops/view/11457,,,,
1515,11458,Stop 39 Flockhart Av - North West side,,-34.83733,138.67063,,http://www.adelaidemetro.com.au/stops/view/11458,,,,
1522,11465,Stop 38A Helen Tce - South side,,-34.8377849437007,138.66868263884,,http://www.adelaidemetro.com.au/stops/view/11465,,,,
1523,11466,Stop 45 Perseverance Rd - East side,,-34.83785,138.72373,,http://www.adelaidemetro.com.au/stops/view/11466,,,,
1533,11474,Stop 28 Port Wakefield Rd - East side,,-34.83891,138.59962,,http://www.adelaidemetro.com.au/stops/view/11474,,,,
1539,11479,Stop 38 North East Rd - East side,,-34.83931,138.67659,,http://www.adelaidemetro.com.au/stops/view/11479,,,,
1552,11491,Stop 44 Military Rd - East side,,-34.839654851719,138.483748585991,,http://www.adelaidemetro.com.au/stops/view/11491,,,,
1571,11505,Stop 37 North East Rd - West side,,-34.84164,138.67346,,http://www.adelaidemetro.com.au/stops/view/11505,,,,
1575,11508,Stop 43 Lower North East Rd - West side,,-34.8416,138.72039,,http://www.adelaidemetro.com.au/stops/view/11508,,,,
1576,11509,Zone A Glanville Station,,-34.84176,138.49323,,http://www.adelaidemetro.com.au/stops/view/11509,,,,
1583,11516,Stop 38 Pauls Dr - East side,,-34.8432,138.65504,,http://www.adelaidemetro.com.au/stops/view/11516,,,,
1584,11517,Stop 39 Grand Junction Rd - South East side,,-34.8421517979263,138.707114120231,,http://www.adelaidemetro.com.au/stops/view/11517,,,,
1591,11524,Stop 33A Walkleys Rd - East side,,-34.8428350592585,138.647855045263,,http://www.adelaidemetro.com.au/stops/view/11524,,,,
1592,11525,Stop 39 Barracks Rd - South side,,-34.8428990498416,138.707906079235,,http://www.adelaidemetro.com.au/stops/view/11525,,,,
1602,11533,Stop 35 Grand Junction Rd - South side,,-34.8435344108502,138.697462706479,,http://www.adelaidemetro.com.au/stops/view/11533,,,,
1609,11540,Stop 27 Main North Rd - West side,,-34.84364,138.60327,,http://www.adelaidemetro.com.au/stops/view/11540,,,,
1610,11541,Stop 39 St Vincent St - North side,,-34.8437,138.50878,,http://www.adelaidemetro.com.au/stops/view/11541,,,,
1615,11545,Stop 27 Main North Rd - East side,,-34.8440043092129,138.603476407366,,http://www.adelaidemetro.com.au/stops/view/11545,,,,
1616,11546,Stop 36 North East Rd - East side,,-34.843858014708,138.67200179973,,http://www.adelaidemetro.com.au/stops/view/11546,,,,
1620,11549,Stop 39 St Vincent St - South side,,-34.8441088197342,138.507207648368,,http://www.adelaidemetro.com.au/stops/view/11549,,,,
1621,11550,Stop 36 Nelson Rd - East side,,-34.8424596563065,138.662960243898,,http://www.adelaidemetro.com.au/stops/view/11550,,,,
1628,11557,Stop 38 Grand Junction Rd - South side,,-34.84437,138.68311,,http://www.adelaidemetro.com.au/stops/view/11557,,,,
1629,11558,Stop 42A Carlisle St - East side,,-34.8443851556994,138.492152700836,,http://www.adelaidemetro.com.au/stops/view/11558,,,,
1636,11565,Zone D Port Adelaide Interchange - East side,,-34.8448683207641,138.505881986317,,http://www.adelaidemetro.com.au/stops/view/11565,,,,
1643,11572,Stop 36 Grand Junction Rd - South side,,-34.84476,138.67578,,http://www.adelaidemetro.com.au/stops/view/11572,,,,
1654,11581,Stop 42D Hart St - North side,,-34.8450480271323,138.486191642727,,http://www.adelaidemetro.com.au/stops/view/11581,,,,
1659,11585,Stop 37 Pauls Dr - West side,,-34.8453515512577,138.655082946097,,http://www.adelaidemetro.com.au/stops/view/11585,,,,
1660,11586,Stop 26 Main North Rd - West side,,-34.84541,138.60198,,http://www.adelaidemetro.com.au/stops/view/11586,,,,
1665,11590,Stop 36 Grand Junction Rd - South side,,-34.84581,138.65729,,http://www.adelaidemetro.com.au/stops/view/11590,,,,
1670,11594,Stop 37A Valley Rd - East side,,-34.8458,138.701904,,http://www.adelaidemetro.com.au/stops/view/11594,,,,
1671,11595,Stop 42C Hart St - South side,,-34.84599,138.49008,,http://www.adelaidemetro.com.au/stops/view/11595,,,,
1678,11602,Stop 35M Grand Junction Rd - North side,,-34.8458849616414,138.651353742131,,http://www.adelaidemetro.com.au/stops/view/11602,,,,
1679,11603,Stop 35A Ardtornish St - West side,,-34.84525,138.67365,,http://www.adelaidemetro.com.au/stops/view/11603,,,,
1685,11609,Stop 26 Port Wakefield Rd - West side,,-34.84647,138.59985,,http://www.adelaidemetro.com.au/stops/view/11609,,,,
1686,11610,Stop 41 Lower North East Rd - East side,,-34.84617,138.71719,,http://www.adelaidemetro.com.au/stops/view/11610,,,,
1692,11615,Stop 34 Grand Junction Rd - North side,,-34.8464267586458,138.641524697612,,http://www.adelaidemetro.com.au/stops/view/11615,,,,
1699,11622,Stop 39A Dale St - North side,,-34.84676,138.50404,,http://www.adelaidemetro.com.au/stops/view/11622,,,,
1706,11629,Stop 32 Grand Junction Rd - South side,,-34.8472965896487,138.627217186811,,http://www.adelaidemetro.com.au/stops/view/11629,,,,
1707,11630,Stop 39 Commercial Rd - South West side,,-34.847250851112,138.507084502258,,http://www.adelaidemetro.com.au/stops/view/11630,,,,
1714,11637,Stop 31 Grand Junction Rd - South side,,-34.847442663246,138.623992304266,,http://www.adelaidemetro.com.au/stops/view/11637,,,,
1727,11649,Stop 37 Valley Rd - West side,,-34.8480134294489,138.701914853229,,http://www.adelaidemetro.com.au/stops/view/11649,,,,
1728,11650,Stop 35A Grand Junction Rd - South side,,-34.84554,138.662,,http://www.adelaidemetro.com.au/stops/view/11650,,,,
1735,11657,Stop 34 Wandana Av - North East side,,-34.8493766226102,138.660872138592,,http://www.adelaidemetro.com.au/stops/view/11657,,,,
1736,11658,Stop 33 Eastern Pde - East side,,-34.8483092163196,138.535114278656,,http://www.adelaidemetro.com.au/stops/view/11658,,,,
1743,11665,Stop 38 Commercial Rd - South West side,,-34.849063054608,138.508089463079,,http://www.adelaidemetro.com.au/stops/view/11665,,,,
1744,11666,Stop 24 Grand Junction Rd - South side,,-34.8487269701394,138.589166559015,,http://www.adelaidemetro.com.au/stops/view/11666,,,,
1750,11672,Stop 24 Prospect Rd - East side,,-34.8491868970439,138.591545299793,,http://www.adelaidemetro.com.au/stops/view/11672,,,,
1751,11673,Stop 23A Grand Junction Rd - North side,,-34.8486766159677,138.586089450347,,http://www.adelaidemetro.com.au/stops/view/11673,,,,
1758,11680,Stop 25 Grand Junction Rd - North side,,-34.8497459338098,138.572566347378,,http://www.adelaidemetro.com.au/stops/view/11680,,,,
1759,11681,Stop 23B Dover St - West side,,-34.8486388009877,138.593347565899,,http://www.adelaidemetro.com.au/stops/view/11681,,,,
1766,11688,Stop 34 North East Rd - West side,,-34.8496251928162,138.6687536593,,http://www.adelaidemetro.com.au/stops/view/11688,,,,
1767,11689,Stop 26 Grand Junction Rd - North side,,-34.8495369164645,138.568196507326,,http://www.adelaidemetro.com.au/stops/view/11689,,,,
1774,11696,Stop 36A Valley Rd - West side,,-34.8498329238964,138.702104658828,,http://www.adelaidemetro.com.au/stops/view/11696,,,,
1775,11697,Stop 28 Grand Junction Rd - North side,,-34.84982,138.56086,,http://www.adelaidemetro.com.au/stops/view/11697,,,,
1779,11700,Stop 29 Grand Junction Rd - North side,,-34.8500630688038,138.555821898429,,http://www.adelaidemetro.com.au/stops/view/11700,,,,
1780,11701,Stop 36A Valley Rd - East side,,-34.8502238050039,138.702267209927,,http://www.adelaidemetro.com.au/stops/view/11701,,,,
1797,11716,Stop 36D Bower Rd - North side,,-34.8510490944195,138.486519965892,,http://www.adelaidemetro.com.au/stops/view/11716,,,,
1805,11724,Stop 30A Hanson Rd - West side,,-34.8513231383291,138.546640838278,,http://www.adelaidemetro.com.au/stops/view/11724,,,,
1806,11725,Stop 36C Sansom Rd - West side,,-34.85125,138.48371,,http://www.adelaidemetro.com.au/stops/view/11725,,,,
1813,11732,Stop 36E Bower Rd - South side,,-34.8515276013486,138.489892766828,,http://www.adelaidemetro.com.au/stops/view/11732,,,,
1826,11744,Stop 34A Grand Junction Rd - South side,,-34.8518349513983,138.52190860654,,http://www.adelaidemetro.com.au/stops/view/11744,,,,
1827,11745,Stop 23A Prospect Rd - West side,,-34.8501052197231,138.591391973137,,http://www.adelaidemetro.com.au/stops/view/11745,,,,
1834,11752,Stop 33A Addison Rd - East side,,-34.8520500357205,138.529018981725,,http://www.adelaidemetro.com.au/stops/view/11752,,,,
1835,11753,Stop 38L Lower North East Rd - South side,,-34.8522321165831,138.709854204558,,http://www.adelaidemetro.com.au/stops/view/11753,,,,
1842,11760,Stop 36 Grand Junction Rd - South side,,-34.8525651992153,138.505850857927,,http://www.adelaidemetro.com.au/stops/view/11760,,,,
1847,11764,Stop 37L Lower North East Rd - South side,,-34.8526848440474,138.705882744775,,http://www.adelaidemetro.com.au/stops/view/11764,,,,
1848,11765,Stop 36 Lower North East Rd - West side,,-34.8526015759352,138.701613221575,,http://www.adelaidemetro.com.au/stops/view/11765,,,,
1855,11772,Stop 30 Hanson Rd - West side,,-34.8539589012689,138.546823515894,,http://www.adelaidemetro.com.au/stops/view/11772,,,,
1856,11773,Stop 34A Awoonga Rd - West side,,-34.8534077312896,138.694266147394,,http://www.adelaidemetro.com.au/stops/view/11773,,,,
1863,11780,Stop 27F Sir Ross Smith Bvd - North West side,,-34.8537190748392,138.648678988031,,http://www.adelaidemetro.com.au/stops/view/11780,,,,
1870,11787,Stop 35 Lower North East Rd - South side,,-34.8542104005517,138.697458245213,,http://www.adelaidemetro.com.au/stops/view/11787,,,,
1871,11788,Stop 36 Port Rd - South West side,,-34.85425,138.50939,,http://www.adelaidemetro.com.au/stops/view/11788,,,,
1878,11795,Stop 27E Sir Ross Smith Av - East side,,-34.85453,138.6459,,http://www.adelaidemetro.com.au/stops/view/11795,,,,
1879,11796,Stop 23 Prospect Rd - East side,,-34.852467089583,138.591733697573,,http://www.adelaidemetro.com.au/stops/view/11796,,,,
1886,11803,Stop 23 Main North Rd - East side,,-34.8552895785417,138.600794824098,,http://www.adelaidemetro.com.au/stops/view/11803,,,,
1887,11804,Stop 22 Churchill Rd - East side,,-34.853065617542,138.582761711261,,http://www.adelaidemetro.com.au/stops/view/11804,,,,
1893,11810,Stop 29A Hanson Rd - East side,,-34.8557704211201,138.547169421677,,http://www.adelaidemetro.com.au/stops/view/11810,,,,
1894,11811,Stop 34 Lower North East Rd - North side,,-34.8557863890412,138.693274167106,,http://www.adelaidemetro.com.au/stops/view/11811,,,,
1901,11818,Stop 22 Churchill Rd - West side,,-34.8539755877966,138.582587482831,,http://www.adelaidemetro.com.au/stops/view/11818,,,,
1902,11819,Stop 27D Sir Ross Smith Bvd - South East side,,-34.8561484235586,138.642032007921,,http://www.adelaidemetro.com.au/stops/view/11819,,,,
1909,11826,Stop 35 Port Rd - North East side,,-34.8563188216742,138.511205668226,,http://www.adelaidemetro.com.au/stops/view/11826,,,,
1910,11827,Stop 32B Lyons Rd - North side,,-34.8565213364358,138.687035916936,,http://www.adelaidemetro.com.au/stops/view/11827,,,,
1917,11834,Stop 32B Lyons Rd - South side,,-34.8567602809634,138.687314880242,,http://www.adelaidemetro.com.au/stops/view/11834,,,,
1918,11835,Stop 26 Hampstead Rd - East side,,-34.8567644531117,138.618157556087,,http://www.adelaidemetro.com.au/stops/view/11835,,,,
1924,11841,Stop 33 Lyons Rd - North side,,-34.8569765767844,138.689599867944,,http://www.adelaidemetro.com.au/stops/view/11841,,,,
1925,11842,Stop 27C Sir Ross Smith Bvd - East side,,-34.8570403129874,138.638184655474,,http://www.adelaidemetro.com.au/stops/view/11842,,,,
1932,11849,Stop 34 Lyons Rd - North side,,-34.8573129359885,138.66751532025,,http://www.adelaidemetro.com.au/stops/view/11849,,,,
1940,11857,Stop 36A First Av - North side,,-34.8574585493081,138.483134976049,,http://www.adelaidemetro.com.au/stops/view/11857,,,,
1941,11858,Stop 36A First Av - South side,,-34.8575295450113,138.482815246753,,http://www.adelaidemetro.com.au/stops/view/11858,,,,
1948,11865,Stop 31 Lyons Rd - North side,,-34.8577,138.66066,,http://www.adelaidemetro.com.au/stops/view/11865,,,,
1949,11866,Stop 31 Lyons Rd - South side,,-34.85777,138.66158,,http://www.adelaidemetro.com.au/stops/view/11866,,,,
1955,11872,Stop 29C Sudholz Rd - South side,,-34.8580766364854,138.656446313591,,http://www.adelaidemetro.com.au/stops/view/11872,,,,
1956,11873,Stop 35A Old Port Rd - East side,,-34.8580070380955,138.502645120571,,http://www.adelaidemetro.com.au/stops/view/11873,,,,
1963,11880,Stop 29A Annette St - South side,,-34.85852,138.54509,,http://www.adelaidemetro.com.au/stops/view/11880,,,,
1964,11881,Stop 29A Annette St - North side,,-34.85847,138.54466,,http://www.adelaidemetro.com.au/stops/view/11881,,,,
1971,11888,Stop 21 Churchill Rd - West side,,-34.8575236387118,138.582815643721,,http://www.adelaidemetro.com.au/stops/view/11888,,,,
1972,11889,Stop 25B Fosters Rd - East side,,-34.8588576175118,138.636274537275,,http://www.adelaidemetro.com.au/stops/view/11889,,,,
1979,11896,Stop 29 North East Rd - North West side,,-34.8591380016048,138.652831311972,,http://www.adelaidemetro.com.au/stops/view/11896,,,,
1980,11897,Stop 29B Alicia St - East side,,-34.85924,138.54246,,http://www.adelaidemetro.com.au/stops/view/11897,,,,
1986,11903,Stop 35B Bartley Tce - East side,,-34.86058,138.4901,,http://www.adelaidemetro.com.au/stops/view/11903,,,,
1987,11904,Stop 33 Torrens Rd - North side,,-34.8596,138.52286,,http://www.adelaidemetro.com.au/stops/view/11904,,,,
1995,11912,Stop 33 Port Rd - North East side,,-34.8598392478246,138.513310296418,,http://www.adelaidemetro.com.au/stops/view/11912,,,,
2002,11919,Stop 32 Addison Rd - East side,,-34.86002,138.52934,,http://www.adelaidemetro.com.au/stops/view/11919,,,,
2003,11920,Stop 31 Lower North East Rd - South East side,,-34.860318431156,138.684985621472,,http://www.adelaidemetro.com.au/stops/view/11920,,,,
2011,11928,Stop 35A Military Rd - North East side,,-34.8605613869759,138.479155164642,,http://www.adelaidemetro.com.au/stops/view/11928,,,,
2018,11935,Stop 39 Corcoran Dr - South East side,,-34.86097,138.49353,,http://www.adelaidemetro.com.au/stops/view/11935,,,,
2025,11942,Stop 28A Brecon St - South East side,,-34.86117,138.65534,,http://www.adelaidemetro.com.au/stops/view/11942,,,,
2026,11943,Stop 25A Fosters Rd - West side,,-34.86117,138.6363,,http://www.adelaidemetro.com.au/stops/view/11943,,,,
2033,11950,Stop 32 Port Rd - South West side,,-34.8614085687394,138.513472913112,,http://www.adelaidemetro.com.au/stops/view/11950,,,,
2034,11951,Stop 34A Old Port Rd - North side,,-34.86111,138.5063,,http://www.adelaidemetro.com.au/stops/view/11951,,,,
2041,11958,Stop 30 Danby Av - South East side,,-34.8616943307318,138.659823763677,,http://www.adelaidemetro.com.au/stops/view/11958,,,,
2042,11959,Stop 30 Danby Av - North West side,,-34.86167,138.65963,,http://www.adelaidemetro.com.au/stops/view/11959,,,,
2049,11966,Stop 29 Mckay Av - North East side,,-34.8618290210166,138.657214956502,,http://www.adelaidemetro.com.au/stops/view/11966,,,,
2056,11973,Stop 28 Brecon St - North West side,,-34.8619399143925,138.653107621146,,http://www.adelaidemetro.com.au/stops/view/11973,,,,
2057,11974,Stop 28 Brecon St - South East side,,-34.862174701319,138.652693888648,,http://www.adelaidemetro.com.au/stops/view/11974,,,,
2062,11978,Stop 31A Torrens Rd - North side,,-34.86252,138.52766,,http://www.adelaidemetro.com.au/stops/view/11978,,,,
2063,11979,Stop 35A Bartley Tce - East side,,-34.86387,138.48613,,http://www.adelaidemetro.com.au/stops/view/11979,,,,
2069,11985,Stop 31 Port Rd - North East side,,-34.8633105828336,138.515367008962,,http://www.adelaidemetro.com.au/stops/view/11985,,,,
2070,11986,Stop 38 Corcoran Dr - South East side,,-34.8631119677779,138.492120138407,,http://www.adelaidemetro.com.au/stops/view/11986,,,,
2075,11990,Stop 19 Churchill Rd - West side,,-34.8622202558751,138.583164811388,,http://www.adelaidemetro.com.au/stops/view/11990,,,,
2076,11991,Stop 26 North East Rd - North West side,,-34.8632011159304,138.647497540421,,http://www.adelaidemetro.com.au/stops/view/11991,,,,
2081,11995,Stop 25 Fosters Rd - East side,,-34.8633366149908,138.636617697854,,http://www.adelaidemetro.com.au/stops/view/11995,,,,
2088,12002,Stop 29F Brookvale Rd - West side,,-34.8636763701968,138.665989136104,,http://www.adelaidemetro.com.au/stops/view/12002,,,,
2089,12003,Stop 35 Bartley Tce - South East side,,-34.86672,138.48433,,http://www.adelaidemetro.com.au/stops/view/12003,,,,
2101,12014,Stop 29A Sudholz Rd - East side,,-34.8639838078963,138.661605084702,,http://www.adelaidemetro.com.au/stops/view/12014,,,,
2102,12015,Stop 20 Main North Rd - West side,,-34.86419,138.6012,,http://www.adelaidemetro.com.au/stops/view/12015,,,,
2106,12018,Stop 35 Military Rd - West side,,-34.8644237836156,138.479499961759,,http://www.adelaidemetro.com.au/stops/view/12018,,,,
