stop_id,stop_code,stop_name,stop_desc,stop_lat,stop_lon,zone_id,stop_url,location_type,parent_station,stop_timezone,wheelchair_boarding
100658,17756,Stop 12 Morphett Rd,"Morphett Rd, Glenelg East",-34.975696,138.538155,,http://www.adelaidemetro.com.au/stops/view/17756,,50110,,
6757,16575,Stop 10 Marion Rd,"431 Marion Rd, Plympton",-34.967003,138.555326,,http://www.adelaidemetro.com.au/stops/view/16575,,50108,,
6767,16584,Stop 8 Beckman St,"Winifred Ave, Plympton",-34.962675,138.563883,,http://www.adelaidemetro.com.au/stops/view/16584,,50106,,
6756,16574,Stop 6 South Rd,"1 Glengyle Tce, Glandore",-34.958546,138.572128,,http://www.adelaidemetro.com.au/stops/view/16574,,50104,,
6766,16583,Stop 4 Forestville,"68 Leah St, Forestville",-34.953642,138.581688,,http://www.adelaidemetro.com.au/stops/view/16583,,50102,,
6768,16585,Stop 1 Greenhill Rd,"3 King William Rd, Unley",-34.941824,138.600063,,http://www.adelaidemetro.com.au/stops/view/16585,,50099,,
6755,16573,Stop Tram Victoria Square,"221-231 Victoria Square, Adelaide",-34.929148,138.599355,,http://www.adelaidemetro.com.au/stops/view/16573,,50096,,
100657,17755,Stop Tram Pirie St,"111-113 King William St, Adelaide",-34.925579,138.599697,,http://www.adelaidemetro.com.au/stops/view/17755,,50095,,
100656,17754,Stop Tram Rundle Mall,"33-39 King William St, Adelaide",-34.922827,138.599485,,http://www.adelaidemetro.com.au/stops/view/17754,,50094,,
100655,17753,Stop Tram Adelaide Railway Station,"134 North Tce, Adelaide",-34.921676,138.597596,,http://www.adelaidemetro.com.au/stops/view/17753,,50093,,
100654,17752,Stop Tram City West,"70 North Tce, Adelaide",-34.921879,138.592896,,http://www.adelaidemetro.com.au/stops/view/17752,,50092,,
100897,17989,Stop Tram Royal Adelaide Hospital,"11-14 North Tce, Adelaide",-34.922104,138.588056,,http://www.adelaidemetro.com.au/stops/view/17989,,50091,,
100899,17991,Stop Tram Thebarton,"23 Port Rd, Thebarton",-34.9177,138.578537,,http://www.adelaidemetro.com.au/stops/view/17991,,50090,,
100898,17990,Stop Tram Bonython Park,"79 Port Rd, Thebarton",-34.91327,138.577783,,http://www.adelaidemetro.com.au/stops/view/17990,,50089,,
100896,17988,Stop Tram Entertainment Centre,"98 Port Rd, Hindmarsh",-34.907292,138.575041,,http://www.adelaidemetro.com.au/stops/view/17988,,50088,,
6759,16577,Stop 17 Moseley Square,"12 Jetty Rd, Glenelg",-34.980404,138.512008,,http://www.adelaidemetro.com.au/stops/view/16577,,50115,,
100002,17111,Stop 16 Jetty Rd - North side,"81 Jetty Rd, Glenelg",-34.9801606956209,138.516592133235,,http://www.adelaidemetro.com.au/stops/view/17111,,50114,,
6764,16582,Stop 15 Brighton Rd,"44 Brighton Rd, Glenelg East",-34.979969,138.52059,,http://www.adelaidemetro.com.au/stops/view/16582,,50113,,
6974,16623,Stop 3 Goodwood Rd,"97 Goodwood Rd, Goodwood",-34.94951,138.589872,,http://www.adelaidemetro.com.au/stops/view/16623,,50101,,
7062,16628,Stop 2 Wayville,"LOT 703 Bartley Cres, Wayville",-34.947409,138.593998,,http://www.adelaidemetro.com.au/stops/view/16628,,50100,,
7061,16627,Stop Tram South Terrace,"Peacock Rd, Adelaide",-34.936625,138.600283,,http://www.adelaidemetro.com.au/stops/view/16627,,50098,,
7060,16626,Stop Tram City South,"360 King William St, Adelaide",-34.933237,138.600285,,http://www.adelaidemetro.com.au/stops/view/16626,,50097,,
7068,16634,Stop 14 Glenelg East,"24 Dunbar Tce, Glenelg East",-34.97972,138.525271,,http://www.adelaidemetro.com.au/stops/view/16634,,50112,,
7067,16633,Stop 13 Glengowrie,"48 Dunbar Tce, Glenelg East",-34.978873,138.531129,,http://www.adelaidemetro.com.au/stops/view/16633,,50111,,
7066,16632,Stop 11 Plympton Park,"36 Lindsay St, Plympton",-34.970948,138.547536,,http://www.adelaidemetro.com.au/stops/view/16632,,50109,,
7065,16631,Stop 9 South Plympton,"116 Pleasant Ave, South Plympton",-34.964805,138.559666,,http://www.adelaidemetro.com.au/stops/view/16631,,50107,,
7064,16630,Stop 7 Glandore,"39 Glengyle Tce, Glandore",-34.960522,138.56813,,http://www.adelaidemetro.com.au/stops/view/16630,,50105,,
7063,16629,Stop 5 Black Forest,"15-16 Aroha Tce, Black Forest",-34.956363,138.576341,,http://www.adelaidemetro.com.au/stops/view/16629,,50103,,
101443,18532,Stop 13 Glengowrie,"48 Dunbar Tce, Glenelg East",-34.978766,138.531744,,http://www.adelaidemetro.com.au/stops/view/18532,,50111,,
101444,18533,Stop 14 Glenelg East,"24 Dunbar Tce, Glenelg East",-34.979759,138.525912,,http://www.adelaidemetro.com.au/stops/view/18533,,50112,,
101445,18534,Stop 15 Brighton Rd,"44 Brighton Rd, Glenelg East",-34.980034,138.520692,,http://www.adelaidemetro.com.au/stops/view/18534,,50113,,
4525,14395,Stop 16/21D Jetty Rd - South side,"122 Jetty Rd, Glenelg",-34.9802179395797,138.517073202622,,http://www.adelaidemetro.com.au/stops/view/14395,,50114,,
101448,18537,Stop 17 Moseley Square,"12 Jetty Rd, Glenelg",-34.980414,138.511824,,http://www.adelaidemetro.com.au/stops/view/18537,,50115,,
101419,18508,Stop Tram Entertainment Centre,"LOT 5810 Port Rd, Hindmarsh",-34.907213,138.574931,,http://www.adelaidemetro.com.au/stops/view/18508,,50088,,
101420,18509,Stop Tram Bonython Park,"79 Port Rd, Thebarton",-34.912829,138.577755,,http://www.adelaidemetro.com.au/stops/view/18509,,50089,,
101421,18510,Stop Tram Thebarton,"23 Port Rd, Thebarton",-34.917543,138.578503,,http://www.adelaidemetro.com.au/stops/view/18510,,50090,,
101422,18511,Stop Tram Royal Adelaide Hospital,"11-14 North Tce, Adelaide",-34.922105,138.587951,,http://www.adelaidemetro.com.au/stops/view/18511,,50091,,
101423,18512,Stop Tram City West,"70 North Tce, Adelaide",-34.92184,138.592567,,http://www.adelaidemetro.com.au/stops/view/18512,,50092,,
101424,18513,Stop Tram Adelaide Railway Station,"134 North Tce, Adelaide",-34.921635,138.597188,,http://www.adelaidemetro.com.au/stops/view/18513,,50093,,
101425,18514,Stop Tram Rundle Mall,"33-39 King William St, Adelaide",-34.922566,138.599515,,http://www.adelaidemetro.com.au/stops/view/18514,,50094,,
101426,18515,Stop Tram Pirie St,"111-113 King William St, Adelaide",-34.925359,138.599729,,http://www.adelaidemetro.com.au/stops/view/18515,,50095,,
101427,18516,Stop Tram Victoria Square,"221-231 Victoria Square, Adelaide",-34.929029,138.599288,,http://www.adelaidemetro.com.au/stops/view/18516,,50096,,
101428,18517,Stop Tram City South,"360 King William St, Adelaide",-34.932543,138.600253,,http://www.adelaidemetro.com.au/stops/view/18517,,50097,,
101429,18518,Stop Tram South Terrace,"Peacock Rd, Adelaide",-34.936437,138.600339,,http://www.adelaidemetro.com.au/stops/view/18518,,50098,,
101430,18519,Stop 1 Greenhill Rd,"1 King William Rd, Unley",-34.941614,138.600236,,http://www.adelaidemetro.com.au/stops/view/18519,,50099,,
101431,18520,Stop 2 Wayville,"LOT 703 Bartley Cres, Wayville",-34.94721778,138.594525284071,,http://www.adelaidemetro.com.au/stops/view/18520,,50100,,
101432,18521,Stop 3 Goodwood Rd,"97 Goodwood Rd, Goodwood",-34.949815,138.589367,,http://www.adelaidemetro.com.au/stops/view/18521,,50101,,
101433,18522,Stop 4 Forestville,"68 Leah St, Forestville",-34.954046,138.581083,,http://www.adelaidemetro.com.au/stops/view/18522,,50102,,
101434,18523,Stop 5 Black Forest,"15-16 Aroha Tce, Black Forest",-34.956159,138.57692,,http://www.adelaidemetro.com.au/stops/view/18523,,50103,,
101435,18524,Stop 6 South Rd,"635-637 South Rd, Everard Park",-34.958416,138.572479,,http://www.adelaidemetro.com.au/stops/view/18524,,50104,,
101436,18525,Stop 7 Glandore,"39 Glengyle Tce, Glandore",-34.960313,138.56871,,http://www.adelaidemetro.com.au/stops/view/18525,,50105,,
101437,18526,Stop 8 Beckman St,"Winifred Ave, Plympton",-34.96309,138.563219,,http://www.adelaidemetro.com.au/stops/view/18526,,50106,,
101438,18527,Stop 9 South Plympton,"116 Pleasant Ave, South Plympton",-34.964604,138.560242,,http://www.adelaidemetro.com.au/stops/view/18527,,50107,,
101439,18528,Stop 10 Marion Rd,"620 Cross Rd, Plympton Park",-34.96744,138.554638,,http://www.adelaidemetro.com.au/stops/view/18528,,50108,,
101440,18529,Stop 11 Plympton Park,"36 Lindsay St, Plympton",-34.970741,138.548119,,http://www.adelaidemetro.com.au/stops/view/18529,,50109,,
101442,18531,Stop 12 Morphett Rd,"LOT 101 Anzac Hwy, Glenelg East",-34.976425,138.536884,,http://www.adelaidemetro.com.au/stops/view/18531,,50110,,
101332,18423,Stop Tram Morphettville Racecourse,"LOT 500 Anzac Hwy, Camden Park",-34.974934,138.539661,,http://www.adelaidemetro.com.au/stops/view/18423,,50116,,
101441,18530,Stop Tram Morphettville Racecourse,"LOT 500 Anzac Hwy, Camden Park",-34.974935,138.53983,,http://www.adelaidemetro.com.au/stops/view/18530,,50116,,
6669,16494,Belair Railway Station,"48 Sheoak Rd, Belair",-34.998108,138.632404,,http://www.adelaidemetro.com.au/stops/view/16494,,50037,,
6732,16557,Pinera Railway Station,"31 Main Rd, Belair",-35.00084,138.624193,,http://www.adelaidemetro.com.au/stops/view/16557,,50036,,
6696,16521,Glenalta Railway Station,"137 Main Rd, Glenalta",-35.011412,138.62318,,http://www.adelaidemetro.com.au/stops/view/16521,,50034,,
6670,16495,Blackwood Railway Station,"6 Station Rd, Blackwood",-35.020925,138.619168,,http://www.adelaidemetro.com.au/stops/view/16495,,50035,,
6679,16504,Coromandel Railway Station,"28 Johnson Pde, Blackwood",-35.025127,138.613981,,http://www.adelaidemetro.com.au/stops/view/16504,,50033,,
6685,16510,Eden Hills Railway Station,"37-38 Willora Rd, Eden Hills",-35.021636,138.594374,,http://www.adelaidemetro.com.au/stops/view/16510,,50032,,
6711,16536,Lynton Railway Station,"11 Beagle Tce, Lynton",-34.995313,138.605757,,http://www.adelaidemetro.com.au/stops/view/16536,,50031,,
6740,16565,Torrens Park Railway Station,"6 Kinross Ave, Lower Mitcham",-34.984123,138.611081,,http://www.adelaidemetro.com.au/stops/view/16565,,50030,,
6718,16543,Mitcham Railway Station,"2 Price Ave, Lower Mitcham",-34.977575,138.608857,,http://www.adelaidemetro.com.au/stops/view/16543,,50029,,
6741,16566,Unley Park Railway Station,"4 Wurilba Ave, Hawthorn",-34.966647,138.598,,http://www.adelaidemetro.com.au/stops/view/16566,,50028,,
101629,18719,Millswood Railway Station,"257 Goodwood Rd, Kings Park",-34.958948,138.590686,,http://www.adelaidemetro.com.au/stops/view/18719,,50027,,
6697,16522,Goodwood Railway Station,"32 Nairne Tce, Forestville",-34.95186,138.585083,,http://www.adelaidemetro.com.au/stops/view/16522,,50001,,
101012,18104,Adelaide Showground Railway Station,"143 Rose Tce, Wayville",-34.94379,138.58311,,http://www.adelaidemetro.com.au/stops/view/18104,,50003,,
6717,16542,Mile End Railway Station,"3 James Congdon Dr, Mile End",-34.925309,138.580271,,http://www.adelaidemetro.com.au/stops/view/16542,,50002,,
6665,16490,Adelaide Railway Station,"125 North Tce, Adelaide",-34.9209,138.596794,,http://www.adelaidemetro.com.au/stops/view/16490,,,,
101493,18582,Mile End Railway Station,"4 Cowell Pl, Mile End",-34.924633,138.580273,,http://www.adelaidemetro.com.au/stops/view/18582,,50002,,
101494,18583,Adelaide Showground Railway Station,"143 Rose Tce, Wayville",-34.94365,138.58326,,http://www.adelaidemetro.com.au/stops/view/18583,,50003,,
101491,18580,Goodwood Railway Station,"21A Richards Tce, Goodwood",-34.950922,138.584845,,http://www.adelaidemetro.com.au/stops/view/18580,,50001,,
101630,18720,Millswood Railway Station,"257 Goodwood Rd, Kings Park",-34.958721,138.590485,,http://www.adelaidemetro.com.au/stops/view/18720,,50027,,
101490,18579,Unley Park Railway Station,"131 Cross Rd, Hawthorn",-34.966235,138.597601,,http://www.adelaidemetro.com.au/stops/view/18579,,50028,,
101489,18578,Mitcham Railway Station,"LOT 202 Belair Rd, Lower Mitcham",-34.976877,138.608251,,http://www.adelaidemetro.com.au/stops/view/18578,,50029,,
101488,18577,Torrens Park Railway Station,"1 Kinross Ave, Lower Mitcham",-34.983718,138.61112,,http://www.adelaidemetro.com.au/stops/view/18577,,50030,,
101487,18576,Lynton Railway Station,"5 Boucaut St, Clapham",-34.994993,138.605991,,http://www.adelaidemetro.com.au/stops/view/18576,,50031,,
101486,18575,Eden Hills Railway Station,"49 Railway Lane, Eden Hills",-35.020654,138.594342,,http://www.adelaidemetro.com.au/stops/view/18575,,50032,,
101485,18574,Coromandel Railway Station,"30 Brighton Pde, Blackwood",-35.025154,138.614472,,http://www.adelaidemetro.com.au/stops/view/18574,,50033,,
101484,18573,Blackwood Railway Station,"LOT 826 Main Rd, Hawthorndene",-35.020554,138.619065,,http://www.adelaidemetro.com.au/stops/view/18573,,50035,,
101483,18572,Glenalta Railway Station,"8 Penno Parade South, Blackwood",-35.011097,138.6232,,http://www.adelaidemetro.com.au/stops/view/18572,,50034,,
101482,18571,Pinera Railway Station,"LOT 5 Gooch Ct, Belair",-35.000591,138.62438,,http://www.adelaidemetro.com.au/stops/view/18571,,50036,,
101481,18570,Belair Railway Station,"LOT 832 Upper Sturt Rd, Belair",-34.998073,138.632399,,http://www.adelaidemetro.com.au/stops/view/18570,,50037,,
6693,16518,Gawler Central Railway Station,"164 Murray St, Gawler",-34.594537,138.747886,,http://www.adelaidemetro.com.au/stops/view/16518,,50087,,
6694,16519,Gawler Oval Railway Station,"LOT 2 Victoria Tce, Gawler",-34.59514,138.7412,,http://www.adelaidemetro.com.au/stops/view/16519,,50086,,
6692,16517,Gawler Railway Station,"9-13 Railway Tce, Gawler West",-34.608171,138.739819,,http://www.adelaidemetro.com.au/stops/view/16517,,50085,,
6691,16516,Evanston Railway Station,"10-12 Railway Cres, Evanston",-34.620412,138.732799,,http://www.adelaidemetro.com.au/stops/view/16516,,50084,,
6737,16562,Tambelin Railway Station,"79 Dawson Rd, Evanston Gardens",-34.628232,138.726211,,http://www.adelaidemetro.com.au/stops/view/16562,,50083,,
6707,16532,Kudla Railway Station,"27 Wattle Tce, Kudla",-34.651587,138.706875,,http://www.adelaidemetro.com.au/stops/view/16532,,50082,,
6720,16545,Munno Para Railway Station,"76 Alawoona Rd, Munno Para",-34.666058,138.697971,,http://www.adelaidemetro.com.au/stops/view/16545,,50081,,
6736,16561,Smithfield Railway Station,"30 Anderson Walk, Smithfield",-34.681885,138.68706,,http://www.adelaidemetro.com.au/stops/view/16561,,50080,,
6673,16498,Broadmeadows Railway Station,"17 Meadows Ln, Davoren Park",-34.695677,138.67431,,http://www.adelaidemetro.com.au/stops/view/16498,,50079,,
6744,16569,Womma Railway Station,"116 Dauntsey Rd, Elizabeth North",-34.703986,138.670099,,http://www.adelaidemetro.com.au/stops/view/16569,,50078,,
6687,16512,Elizabeth Railway Station,"LOT 820 Mountbatten Square, Elizabeth",-34.716984,138.66493,,http://www.adelaidemetro.com.au/stops/view/16512,,50077,,
6688,16513,Elizabeth South Railway Station,"LOT 7 West Ave, Edinburgh",-34.730852,138.656154,,http://www.adelaidemetro.com.au/stops/view/16513,,50076,,
6724,16549,Nurlutta Railway Station,"182 Commercial Rd, Salisbury",-34.751234,138.643973,,http://www.adelaidemetro.com.au/stops/view/16549,,50075,,
6733,16558,Salisbury Railway Station,"12 Park Tce, Salisbury",-34.762408,138.642389,,http://www.adelaidemetro.com.au/stops/view/16558,,50074,,
6675,16500,Chidda Railway Station,"LOT 25 York Tce, Salisbury Downs",-34.774439,138.638379,,http://www.adelaidemetro.com.au/stops/view/16500,,50073,,
6729,16554,Parafield Railway Station,"59 Parkway Circuit, Parafield Gardens",-34.782731,138.631028,,http://www.adelaidemetro.com.au/stops/view/16554,,50072,,
6730,16555,Parafield Gardens Railway Station,"9 Lindwall St, Parafield Gardens",-34.79097,138.623675,,http://www.adelaidemetro.com.au/stops/view/16555,,50071,,
6699,16524,Greenfields Railway Station,"31-32 McCabe Ave, Parafield Gardens",-34.798737,138.616835,,http://www.adelaidemetro.com.au/stops/view/16524,,50070,,
100435,17533,Mawson Lakes Railway Station,"Elder Smith Rd, Mawson Lakes",-34.803742,138.612338,,http://www.adelaidemetro.com.au/stops/view/17533,,50069,,
6682,16507,Dry Creek Railway Station,"11 Railway Tce, Dry Creek",-34.834494,138.586008,,http://www.adelaidemetro.com.au/stops/view/16507,,50068,,
6705,16530,Kilburn Railway Station,"LOT 20 Carroll Ave, Regency Park",-34.859874,138.57844,,http://www.adelaidemetro.com.au/stops/view/16530,,50067,,
6702,16527,Islington Railway Station,"250 Churchill Rd, Prospect",-34.875218,138.581819,,http://www.adelaidemetro.com.au/stops/view/16527,,50066,,
6683,16508,Dudley Park Railway Station,"52 Exeter Tce, Dudley Park",-34.884747,138.583321,,http://www.adelaidemetro.com.au/stops/view/16508,,50065,,
6728,16553,Ovingham Railway Station,"7 Devonport Tce, Ovingham",-34.895664,138.584382,,http://www.adelaidemetro.com.au/stops/view/16553,,50064,,
6722,16547,North Adelaide Railway Station,"LOT 5 War Memorial Dr, North Adelaide",-34.905757,138.58182,,http://www.adelaidemetro.com.au/stops/view/16547,,50063,,
101449,18538,North Adelaide Railway Station,"LOT 6 War Memorial Dr, North Adelaide",-34.906355,138.581548,,http://www.adelaidemetro.com.au/stops/view/18538,,50063,,
101411,18500,Ovingham Railway Station,"1 Exeter Tce, Renown Park",-34.89626,138.584277,,http://www.adelaidemetro.com.au/stops/view/18500,,50064,,
101450,18539,Dudley Park Railway Station,"52 Exeter Tce, Dudley Park",-34.885406,138.583284,,http://www.adelaidemetro.com.au/stops/view/18539,,50065,,
101451,18540,Islington Railway Station,"250 Churchill Rd, Prospect",-34.875058,138.58175,,http://www.adelaidemetro.com.au/stops/view/18540,,50066,,
101452,18541,Kilburn Railway Station,"LOT 20 Carroll Ave, Regency Park",-34.859289,138.578279,,http://www.adelaidemetro.com.au/stops/view/18541,,50067,,
101453,18542,Dry Creek Railway Station,"11 Railway Tce, Dry Creek",-34.835131,138.585469,,http://www.adelaidemetro.com.au/stops/view/18542,,50068,,
101454,18543,Mawson Lakes Railway Station,"Elder Smith Rd, Mawson Lakes",-34.804203,138.611812,,http://www.adelaidemetro.com.au/stops/view/18543,,50069,,
101455,18544,Greenfields Railway Station,"31-32 McCabe Ave, Parafield Gardens",-34.799245,138.616281,,http://www.adelaidemetro.com.au/stops/view/18544,,50070,,
101456,18545,Parafield Gardens Railway Station,"9 Lindwall St, Parafield Gardens",-34.791591,138.623043,,http://www.adelaidemetro.com.au/stops/view/18545,,50071,,
101457,18546,Parafield Railway Station,"59 Parkway Circuit, Parafield Gardens",-34.782865,138.630904,,http://www.adelaidemetro.com.au/stops/view/18546,,50072,,
101458,18547,Chidda Railway Station,"LOT 25 York Tce, Salisbury Downs",-34.774833,138.637954,,http://www.adelaidemetro.com.au/stops/view/18547,,50073,,
101459,18548,Salisbury Railway Station,"10 Park Tce, Salisbury",-34.763132,138.642302,,http://www.adelaidemetro.com.au/stops/view/18548,,50074,,
101460,18549,Nurlutta Railway Station,"182 Commercial Rd, Salisbury",-34.750328,138.644207,,http://www.adelaidemetro.com.au/stops/view/18549,,50075,,
101461,18550,Elizabeth South Railway Station,"LOT 7 West Ave, Edinburgh",-34.731354,138.655752,,http://www.adelaidemetro.com.au/stops/view/18550,,50076,,
101462,18551,Elizabeth Railway Station,"LOT 823 Bellchambers Rd, Edinburgh",-34.717596,138.664455,,http://www.adelaidemetro.com.au/stops/view/18551,,50077,,
101463,18552,Womma Railway Station,"116 Dauntsey Rd, Elizabeth North",-34.704596,138.66993,,http://www.adelaidemetro.com.au/stops/view/18552,,50078,,
101464,18553,Broadmeadows Railway Station,"17 Meadows Ln, Davoren Park",-34.696074,138.673934,,http://www.adelaidemetro.com.au/stops/view/18553,,50079,,
101465,18554,Smithfield Railway Station,"30 Anderson Walk, Smithfield",-34.682357,138.686275,,http://www.adelaidemetro.com.au/stops/view/18554,,50080,,
101466,18555,Munno Para Railway Station,"76 Alawoona Rd, Munno Para",-34.667114,138.697257,,http://www.adelaidemetro.com.au/stops/view/18555,,50081,,
101467,18556,Kudla Railway Station,"27 Wattle Tce, Kudla",-34.652062,138.706433,,http://www.adelaidemetro.com.au/stops/view/18556,,50082,,
101468,18557,Tambelin Railway Station,"79 Dawson Rd, Evanston Gardens",-34.628644,138.725765,,http://www.adelaidemetro.com.au/stops/view/18557,,50083,,
101469,18558,Evanston Railway Station,"10-12 Railway Cres, Evanston",-34.620747,138.732437,,http://www.adelaidemetro.com.au/stops/view/18558,,50084,,
101470,18559,Gawler Railway Station,"9-13 Railway Tce, Gawler West",-34.609032,138.739627,,http://www.adelaidemetro.com.au/stops/view/18559,,50085,,
101471,18560,Gawler Oval Railway Station,"1 Thomas Tce, Gawler",-34.595313,138.740476,,http://www.adelaidemetro.com.au/stops/view/18560,,50086,,
101472,18561,Gawler Central Railway Station,"164 Murray St, Gawler",-34.594513,138.74767,,http://www.adelaidemetro.com.au/stops/view/18561,,50087,,
6727,16552,Outer Harbor Railway Station,"Oliver Rogers Rd, North Haven",-34.778803,138.483889,,http://www.adelaidemetro.com.au/stops/view/16552,,50062,,
6723,16548,North Haven Railway Station,"37 Merle Marten Dr, North Haven",-34.786172,138.494555,,http://www.adelaidemetro.com.au/stops/view/16548,,50061,,
6726,16551,Osborne Railway Station,"2 Cousins Ct, North Haven",-34.792808,138.499184,,http://www.adelaidemetro.com.au/stops/view/16551,,50060,,
6715,16540,Midlunga Railway Station,"307-355 Railway Tce, Osborne",-34.79913,138.499144,,http://www.adelaidemetro.com.au/stops/view/16540,,50059,,
6738,16563,Taperoo Railway Station,"240 Railway Tce, Taperoo",-34.805356,138.499091,,http://www.adelaidemetro.com.au/stops/view/16563,,50058,,
6681,16506,Draper Railway Station,"134 Railway Tce, Largs North",-34.814091,138.498977,,http://www.adelaidemetro.com.au/stops/view/16506,,50057,,
6709,16534,Largs North Railway Station,"1 Lamorna Tce, Largs North",-34.819784,138.495133,,http://www.adelaidemetro.com.au/stops/view/16534,,50056,,
6708,16533,Largs Railway Station,"26 Hampton Cres, Largs Bay",-34.82728,138.491116,,http://www.adelaidemetro.com.au/stops/view/16533,,50055,,
6731,16556,Peterhead Railway Station,"4 Monte Pl, Birkenhead",-34.834511,138.491938,,http://www.adelaidemetro.com.au/stops/view/16556,,50054,,
6695,16520,Glanville Railway Station,"83 Causeway Rd, Exeter",-34.842075,138.493475,,http://www.adelaidemetro.com.au/stops/view/16520,,50053,,
6690,16515,Ethelton Railway Station,"16 Wirra Dr, New Port",-34.848532,138.494932,,http://www.adelaidemetro.com.au/stops/view/16515,,50052,,
6760,16578,Port Adelaide Railway Station,"Portland Pl, Port Adelaide",-34.849148,138.507387,,http://www.adelaidemetro.com.au/stops/view/16578,,50051,,
6667,16492,Alberton Railway Station,"48 Sussex St, Alberton",-34.857716,138.518158,,http://www.adelaidemetro.com.au/stops/view/16492,,50050,,
6674,16499,Cheltenham Railway Station,"26 Railway Tce, Cheltenham",-34.865428,138.524286,,http://www.adelaidemetro.com.au/stops/view/16499,,50049,,
101593,18683,St Clair Railway Station,"40 Cheltenham Pde, St Clair",-34.87042,138.52934,,http://www.adelaidemetro.com.au/stops/view/18683,,50048,,
6746,16571,Woodville Railway Station,"LOT 4 Woodville Rd, St Clair",-34.876763,138.537473,,http://www.adelaidemetro.com.au/stops/view/16571,,50043,,
6747,16572,Woodville Park Railway Station,"26 Belmore Tce, Woodville Park",-34.881262,138.543347,,http://www.adelaidemetro.com.au/stops/view/16572,,50042,,
6706,16531,Kilkenny Railway Station,"LOT 1 Kilkenny Rd, Kilkenny",-34.885983,138.549483,,http://www.adelaidemetro.com.au/stops/view/16531,,50041,,
6743,16568,West Croydon Railway Station,"72 Euston Tce, West Croydon",-34.891507,138.55669,,http://www.adelaidemetro.com.au/stops/view/16568,,50040,,
6680,16505,Croydon Railway Station,"17-32 Euston Tce, Croydon",-34.896818,138.563616,,http://www.adelaidemetro.com.au/stops/view/16505,,50039,,
6671,16496,Bowden Railway Station,"LOT 1 Gibson St, Bowden",-34.905741,138.575267,,http://www.adelaidemetro.com.au/stops/view/16496,,50038,,
6698,16523,Grange Railway Station,"LOT 59 Military Rd, Grange",-34.900136,138.491103,,http://www.adelaidemetro.com.au/stops/view/16523,,50047,,
6684,16509,East Grange Railway Station,"9A Nash St, Grange",-34.899252,138.501417,,http://www.adelaidemetro.com.au/stops/view/16509,,50046,,
6735,16560,Seaton Park Railway Station,"2 Clark Tce, Seaton",-34.890613,138.514855,,http://www.adelaidemetro.com.au/stops/view/16560,,50045,,
6666,16491,Albert Park Railway Station,"116 Alma Tce, Woodville West",-34.881876,138.522911,,http://www.adelaidemetro.com.au/stops/view/16491,,50044,,
101351,18442,Bowden Railway Station,"LOT 1 Gibson St, Bowden",-34.906453,138.576063,,http://www.adelaidemetro.com.au/stops/view/18442,,50038,,
101353,18444,Croydon Railway Station,"17-32 Euston Tce, Croydon",-34.897355,138.564183,,http://www.adelaidemetro.com.au/stops/view/18444,,50039,,
101356,18447,West Croydon Railway Station,"72 Euston Tce, West Croydon",-34.891995,138.557182,,http://www.adelaidemetro.com.au/stops/view/18447,,50040,,
101357,18448,Kilkenny Railway Station,"LOT 1 Kilkenny Rd, Kilkenny",-34.886406,138.549899,,http://www.adelaidemetro.com.au/stops/view/18448,,50041,,
101359,18450,Woodville Park Railway Station,"26 Belmore Tce, Woodville Park",-34.881706,138.543845,,http://www.adelaidemetro.com.au/stops/view/18450,,50042,,
101361,18452,Woodville Railway Station,"LOT 1 Woodville Rd, Woodville",-34.877333,138.537997,,http://www.adelaidemetro.com.au/stops/view/18452,,50043,,
101594,18684,St Clair Railway Station,"39 Cheltenham Pde, St Clair",-34.87055,138.52933,,http://www.adelaidemetro.com.au/stops/view/18684,,50048,,
101370,18461,Cheltenham Railway Station,"26 Railway Tce, Cheltenham",-34.866038,138.524748,,http://www.adelaidemetro.com.au/stops/view/18461,,50049,,
101372,18463,Alberton Railway Station,"48 Sussex St, Alberton",-34.858368,138.518555,,http://www.adelaidemetro.com.au/stops/view/18463,,50050,,
101374,18465,Port Adelaide Railway Station,"Portland Pl, Port Adelaide",-34.849159,138.507894,,http://www.adelaidemetro.com.au/stops/view/18465,,50051,,
101376,18467,Ethelton Railway Station,"6-8 Wirra Dr, New Port",-34.849143,138.494925,,http://www.adelaidemetro.com.au/stops/view/18467,,50052,,
101378,18469,Glanville Railway Station,"83 Causeway Rd, Exeter",-34.842566,138.493398,,http://www.adelaidemetro.com.au/stops/view/18469,,50053,,
101380,18471,Peterhead Railway Station,"4 Monte Pl, Birkenhead",-34.835049,138.492034,,http://www.adelaidemetro.com.au/stops/view/18471,,50054,,
101382,18473,Largs Railway Station,"26 Hampton Cres, Largs Bay",-34.82776,138.491083,,http://www.adelaidemetro.com.au/stops/view/18473,,50055,,
101383,18474,Largs North Railway Station,"1 Lamorna Tce, Largs North",-34.820121,138.494638,,http://www.adelaidemetro.com.au/stops/view/18474,,50056,,
101385,18476,Draper Railway Station,"134 Railway Tce, Largs North",-34.814727,138.498975,,http://www.adelaidemetro.com.au/stops/view/18476,,50057,,
101388,18479,Taperoo Railway Station,"240 Railway Tce, Taperoo",-34.805862,138.499101,,http://www.adelaidemetro.com.au/stops/view/18479,,50058,,
101390,18481,Midlunga Railway Station,"307-355 Railway Tce, Osborne",-34.79993,138.499095,,http://www.adelaidemetro.com.au/stops/view/18481,,50059,,
101392,18483,Osborne Railway Station,"2 Townsend Ct, North Haven",-34.793276,138.499175,,http://www.adelaidemetro.com.au/stops/view/18483,,50060,,
101394,18485,North Haven Railway Station,"37 Merle Marten Dr, North Haven",-34.786393,138.495027,,http://www.adelaidemetro.com.au/stops/view/18485,,50061,,
101475,18564,Outer Harbor Railway Station,"Oliver Rogers Rd, North Haven",-34.778839,138.483906,,http://www.adelaidemetro.com.au/stops/view/18564,,50062,,
101363,18454,Albert Park Railway Station,"116 Alma Tce, Woodville West",-34.881391,138.523371,,http://www.adelaidemetro.com.au/stops/view/18454,,50044,,
101366,18457,Seaton Park Railway Station,"2 Clark Tce, Seaton",-34.890261,138.515176,,http://www.adelaidemetro.com.au/stops/view/18457,,50045,,
101368,18459,East Grange Railway Station,"9A Nash St, Grange",-34.899222,138.502011,,http://www.adelaidemetro.com.au/stops/view/18459,,50046,,
101474,18563,Grange Railway Station,"LOT 59 Military Rd, Grange",-34.900106,138.491105,,http://www.adelaidemetro.com.au/stops/view/18563,,50047,,
101590,18680,Seaford Railway Station,"161-167 Griffiths Dr, Seaford",-35.189967,138.483444,,http://www.adelaidemetro.com.au/stops/view/18680,,50023,,
101588,18678,Seaford Meadows Railway Station,"LOT 32 Seaford Rd, Seaford Meadows",-35.179365,138.487287,,http://www.adelaidemetro.com.au/stops/view/18678,,50022,,
6721,16546,Noarlunga Railway Station,"LOT 71 Beach Rd, Noarlunga Centre",-35.140482,138.492252,,http://www.adelaidemetro.com.au/stops/view/16546,,50021,,
6676,16501,Christie Downs Railway Station,"LOT 441 Elizabeth Rd, Christie Downs",-35.129631,138.496121,,http://www.adelaidemetro.com.au/stops/view/16501,,50020,,
6710,16535,Lonsdale Railway Station,"LOT 7 Refinery Rd, Lonsdale",-35.109667,138.491799,,http://www.adelaidemetro.com.au/stops/view/16535,,50019,,
6770,16587,Hallett Cove Beach Railway Station,"LOT 304 Reliance Rd, Hallett Cove",-35.079833,138.50173,,http://www.adelaidemetro.com.au/stops/view/16587,,50018,,
6700,16525,Hallett Cove Railway Station,"121 The Cove Rd, Hallett Cove",-35.066644,138.505489,,http://www.adelaidemetro.com.au/stops/view/16525,,50017,,
6713,16538,Marino Rocks Railway Station,"84 Newland Ave, Marino",-35.046341,138.512465,,http://www.adelaidemetro.com.au/stops/view/16538,,50016,,
6712,16537,Marino Railway Station,"25-26 Bandon Tce, Marino",-35.042558,138.516915,,http://www.adelaidemetro.com.au/stops/view/16537,,50015,,
6734,16559,Seacliff Railway Station,"LOT 338 Wheatland St, Seacliff",-35.0328,138.521378,,http://www.adelaidemetro.com.au/stops/view/16559,,50014,,
6672,16497,Brighton Railway Station,"46 Cedar Ave, Brighton",-35.021758,138.519312,,http://www.adelaidemetro.com.au/stops/view/16497,,50013,,
6701,16526,Hove Railway Station,"3-5 Addison Rd, Hove",-35.012223,138.523477,,http://www.adelaidemetro.com.au/stops/view/16526,,50012,,
6742,16567,Warradale Railway Station,"36-37 Railway Tce, Warradale",-35.011263,138.533019,,http://www.adelaidemetro.com.au/stops/view/16567,,50011,,
6725,16550,Oaklands Railway Station,"10 Murray Tce, Oaklands Park",-35.009361,138.540667,,http://www.adelaidemetro.com.au/stops/view/16550,,50010,,
6714,16539,Marion Railway Station,"5 Farne Tce, Marion",-34.99891,138.552831,,http://www.adelaidemetro.com.au/stops/view/16539,,50009,,
6668,16493,Ascot Park Railway Station,"114-120 Railway Tce, Ascot Park",-34.991167,138.560921,,http://www.adelaidemetro.com.au/stops/view/16493,,50008,,
6745,16570,Woodlands Park Railway Station,"68-74 Railway Tce, Edwardstown",-34.983287,138.566961,,http://www.adelaidemetro.com.au/stops/view/16570,,50007,,
6686,16511,Edwardstown Railway Station,"LOT 101 Messines Ave, Edwardstown",-34.972519,138.571203,,http://www.adelaidemetro.com.au/stops/view/16511,,50006,,
6689,16514,Emerson Railway Station,"1 Emerson Rd, Black Forest",-34.966671,138.573636,,http://www.adelaidemetro.com.au/stops/view/16514,,50005,,
6677,16502,Clarence Park Railway Station,"8 Canterbury Tce, Black Forest",-34.961666,138.580038,,http://www.adelaidemetro.com.au/stops/view/16502,,50004,,
6739,16564,Tonsley Railway Station,"34 Lynton Ave, Mitchell Park",-35.015028,138.566333,,http://www.adelaidemetro.com.au/stops/view/16564,,50026,,
6678,16503,Clovelly Park Railway Station,"7 Kirra Ave, Mitchell Park",-35.007654,138.567193,,http://www.adelaidemetro.com.au/stops/view/16503,,50025,,
6719,16544,Mitchell Park Railway Station,"15 Furner Rd, Mitchell Park",-35.001966,138.566733,,http://www.adelaidemetro.com.au/stops/view/16544,,50024,,
101495,18584,Clarence Park Railway Station,"8 Canterbury Tce, Black Forest",-34.961158,138.580767,,http://www.adelaidemetro.com.au/stops/view/18584,,50004,,
101496,18585,Emerson Railway Station,"1 Emerson Rd, Black Forest",-34.966209,138.574283,,http://www.adelaidemetro.com.au/stops/view/18585,,50005,,
101497,18586,Edwardstown Railway Station,"LOT 101 Messines Ave, Edwardstown",-34.97175,138.571233,,http://www.adelaidemetro.com.au/stops/view/18586,,50006,,
101498,18587,Woodlands Park Railway Station,"68-74 Railway Tce, Edwardstown",-34.9825,138.567483,,http://www.adelaidemetro.com.au/stops/view/18587,,50007,,
101502,18591,Ascot Park Railway Station,"114-120 Railway Tce, Ascot Park",-34.990544,138.561528,,http://www.adelaidemetro.com.au/stops/view/18591,,50008,,
101503,18592,Marion Railway Station,"5 Farne Tce, Marion",-34.998638,138.553246,,http://www.adelaidemetro.com.au/stops/view/18592,,50009,,
101504,18593,Oaklands Railway Station,"10 Murray Tce, Oaklands Park",-35.009123,138.541083,,http://www.adelaidemetro.com.au/stops/view/18593,,50010,,
101505,18594,Warradale Railway Station,"36-37 Railway Tce, Warradale",-35.011272,138.534156,,http://www.adelaidemetro.com.au/stops/view/18594,,50011,,
101506,18595,Hove Railway Station,"3-5 Addison Rd, Hove",-35.012121,138.524309,,http://www.adelaidemetro.com.au/stops/view/18595,,50012,,
101507,18596,Brighton Railway Station,"46 Cedar Ave, Brighton",-35.021038,138.519154,,http://www.adelaidemetro.com.au/stops/view/18596,,50013,,
101508,18597,Seacliff Railway Station,"LOT 338 Wheatland St, Seacliff",-35.032025,138.521449,,http://www.adelaidemetro.com.au/stops/view/18597,,50014,,
101509,18598,Marino Railway Station,"25-26 Bandon Tce, Marino",-35.041901,138.517749,,http://www.adelaidemetro.com.au/stops/view/18598,,50015,,
101510,18599,Marino Rocks Railway Station,"84 Newland Ave, Marino",-35.045904,138.513157,,http://www.adelaidemetro.com.au/stops/view/18599,,50016,,
101511,18600,Hallett Cove Railway Station,"121 The Cove Rd, Hallett Cove",-35.065852,138.505828,,http://www.adelaidemetro.com.au/stops/view/18600,,50017,,
101512,18601,Hallett Cove Beach Railway Station,"LOT 304 Reliance Rd, Hallett Cove",-35.079132,138.50221,,http://www.adelaidemetro.com.au/stops/view/18601,,50018,,
101513,18602,Lonsdale Railway Station,"LOT 7 Refinery Rd, Lonsdale",-35.108956,138.491489,,http://www.adelaidemetro.com.au/stops/view/18602,,50019,,
101514,18603,Christie Downs Railway Station,"LOT 441 Elizabeth Rd, Christie Downs",-35.128749,138.496381,,http://www.adelaidemetro.com.au/stops/view/18603,,50020,,
101515,18604,Noarlunga Railway Station,"LOT 71 Beach Rd, Noarlunga Centre",-35.139741,138.492614,,http://www.adelaidemetro.com.au/stops/view/18604,,50021,,
101587,18677,Seaford Meadows Railway Station,"LOT 32 Seaford Rd, Seaford Meadows",-35.178377,138.487813,,http://www.adelaidemetro.com.au/stops/view/18677,,50022,,
101589,18679,Seaford Railway Station,"161-167 Griffiths Dr, Seaford",-35.188857,138.483534,,http://www.adelaidemetro.com.au/stops/view/18679,,50023,,
101499,18588,Mitchell Park Railway Station,"15 Furner Rd, Mitchell Park",-35.001408,138.566576,,http://www.adelaidemetro.com.au/stops/view/18588,,50024,,
101500,18589,Clovelly Park Railway Station,"7 Kirra Ave, Mitchell Park",-35.00713,138.567149,,http://www.adelaidemetro.com.au/stops/view/18589,,50025,,
101501,18590,Tonsley Railway Station,"34 Lynton Ave, Mitchell Park",-35.01501,138.566286,,http://www.adelaidemetro.com.au/stops/view/18590,,50026,,
101762,18852,Stop Tram Botanic Gardens,"288 North Tce, Adelaide",-34.921021,138.609488,,http://www.adelaidemetro.com.au/stops/view/18852,,50120,,
101760,18850,Stop Tram University,"241 North Tce, Adelaide",-34.921194,138.606167,,http://www.adelaidemetro.com.au/stops/view/18850,,50119,,
101758,18848,Stop Tram Art Gallery,"196 North Tce, Adelaide",-34.921379,138.602521,,http://www.adelaidemetro.com.au/stops/view/18848,,50118,,
101759,18849,Stop Tram Art Gallery,"196 North Tce, Adelaide",-34.921422,138.602251,,http://www.adelaidemetro.com.au/stops/view/18849,,50118,,
101761,18851,Stop Tram University,"241 North Tce, Adelaide",-34.921251,138.605861,,http://www.adelaidemetro.com.au/stops/view/18851,,50119,,
101763,18853,Stop Tram Botanic Gardens,"288 North Tce, Adelaide",-34.921051,138.609306,,http://www.adelaidemetro.com.au/stops/view/18853,,50120,,
101756,18846,Stop Tram Festival Plaza,"Festival Theatre, Adelaide",-34.918645,138.599171,,http://www.adelaidemetro.com.au/stops/view/18846,,50117,,
101757,18847,Stop Tram Festival Plaza,"Festival Theatre, Adelaide",-34.918731,138.599217,,http://www.adelaidemetro.com.au/stops/view/18847,,50117,,
6201,16037,Zone A Colonnades Interchange,"LOT 55 Beach Rd, Noarlunga Centre",-35.139636,138.495256,,http://www.adelaidemetro.com.au/stops/view/16037,,,,
6186,16022,Stop 64A Alexander Kelly Dr - North side,"9 Alexander Kelly Dr, Noarlunga Centre",-35.1388272828431,138.499519537616,,http://www.adelaidemetro.com.au/stops/view/16022,,,,
6174,16010,Stop 64 Beach Rd - North side,"LOT 51 Beach Rd, Noarlunga Centre",-35.13769,138.50395,,http://www.adelaidemetro.com.au/stops/view/16010,,,,
6173,16009,Stop 63 Beach Rd - North side,"LOT 112 Beach Rd, Morphett Vale",-35.1374908059788,138.508112340798,,http://www.adelaidemetro.com.au/stops/view/16009,,,,
6169,16005,Stop 62 Beach Rd - North side,"268 Beach Rd, Hackham West",-35.13725,138.51239,,http://www.adelaidemetro.com.au/stops/view/16005,,,,
6165,16001,Stop 61 Beach Rd - North side,"350 Beach Rd, Hackham West",-35.1371191652585,138.515496035217,,http://www.adelaidemetro.com.au/stops/view/16001,,,,
6164,16000,Stop 60 Beach Rd - North side,"386 Beach Rd, Hackham West",-35.136922092866,138.519465323035,,http://www.adelaidemetro.com.au/stops/view/16000,,,,
100010,17119,Zone B Old Reynella Interchange,"141 Old South Rd, Old Reynella",-35.0955009301346,138.537942320108,,http://www.adelaidemetro.com.au/stops/view/17119,,,,
5511,15361,Stop 34 Main South Rd - West side,"1A Larkdale Cres, O'Halloran Hill",-35.0616131707932,138.558122281463,,http://www.adelaidemetro.com.au/stops/view/15361,,,,
5550,15399,Stop 35 Main South Rd - West side,"47 Main South Rd, O'Halloran Hill",-35.0659477215404,138.554673691594,,http://www.adelaidemetro.com.au/stops/view/15399,,,,
5577,15425,Stop 36 Main South Rd - West side,"107 Main South Rd, O'Halloran Hill",-35.06836,138.55445,,http://www.adelaidemetro.com.au/stops/view/15425,,,,
5608,15452,Stop 37 Main South Rd - West side,"133 Main South Rd, O'Halloran Hill",-35.0715597227615,138.553430054051,,http://www.adelaidemetro.com.au/stops/view/15452,,,,
5644,15487,Stop 38 Main South Rd - North West side,"1708 Main South Rd, O'Halloran Hill",-35.0745139848723,138.551044832073,,http://www.adelaidemetro.com.au/stops/view/15487,,,,
100783,17878,Stop 39 Main South Rd - West side,"1732 Main South Rd, O'Halloran Hill",-35.078030019836,138.548173108872,,http://www.adelaidemetro.com.au/stops/view/17878,,,,
5737,15577,Stop 40 Old South Rd - West side,"LOT 444 Fountain Valley Dr, Happy Valley",-35.082051,138.546174,,http://www.adelaidemetro.com.au/stops/view/15577,,,,
5791,15631,Stop 42 Old South Rd - West side,"243-245 Old South Rd, Old Reynella",-35.0866308976936,138.544135808473,,http://www.adelaidemetro.com.au/stops/view/15631,,,,
5811,15651,Stop 43 Old South Rd - North West side,"227 Old South Rd, Old Reynella",-35.08893,138.54151,,http://www.adelaidemetro.com.au/stops/view/15651,,,,
5833,15673,Stop 44 Old South Rd - West side,"163 Old South Rd, Old Reynella",-35.0928113135692,138.539813106001,,http://www.adelaidemetro.com.au/stops/view/15673,,,,
5861,15699,Stop 45A Grant Rd - North side,"82 Grant Rd, Reynella",-35.094121,138.535646,,http://www.adelaidemetro.com.au/stops/view/15699,,,,
5886,15723,Stop 46 Main South Rd - North West side,"91 Main South Rd, Reynella",-35.09872,138.53317,,http://www.adelaidemetro.com.au/stops/view/15723,,,,
5099,14962,Stop 29B Sturt Rd - North side,"278 Sturt Rd, Marion",-35.0171647837157,138.5564705487,,http://www.adelaidemetro.com.au/stops/view/14962,,,,
5093,14956,Stop 29A Sturt Rd - North side,"312 Sturt Rd, Mitchell Park",-35.016901,138.561553,,http://www.adelaidemetro.com.au/stops/view/14956,,,,
5894,15731,Stop 47 Main South Rd - North West side,"73 Main South Rd, Reynella",-35.100672910045,138.531305710541,,http://www.adelaidemetro.com.au/stops/view/15731,,,,
5911,15748,Stop 48 Main South Rd - North West side,"19 Main South Rd, Reynella",-35.10373,138.52839,,http://www.adelaidemetro.com.au/stops/view/15748,,,,
5948,15785,Stop 49 Main South Rd - North West side,"333-335 Main South Rd, Morphett Vale",-35.10743,138.52491,,http://www.adelaidemetro.com.au/stops/view/15785,,,,
5963,15800,Stop 50 Main South Rd - North West side,"287-295 Main South Rd, Morphett Vale",-35.1093168120081,138.523132426423,,http://www.adelaidemetro.com.au/stops/view/15800,,,,
5981,15817,Stop 51 Main South Rd - West side,"247-251 Main South Rd, Morphett Vale",-35.11282,138.52242,,http://www.adelaidemetro.com.au/stops/view/15817,,,,
5994,15830,Stop 52 Main South Rd - West side,"257 Main South Rd, Morphett Vale",-35.1148846189568,138.522541537423,,http://www.adelaidemetro.com.au/stops/view/15830,,,,
6037,15873,Stop 53 Main South Rd - West side,"173-199 Main South Rd, Morphett Vale",-35.1192,138.52289,,http://www.adelaidemetro.com.au/stops/view/15873,,,,
6044,15880,Stop 54 Main South Rd - West side,"151-157 Main South Rd, Morphett Vale",-35.1214283699814,138.523047792489,,http://www.adelaidemetro.com.au/stops/view/15880,,,,
6059,15895,Stop 55 Main South Rd - West side,"111 Main South Rd, Morphett Vale",-35.1251866610653,138.52330858353,,http://www.adelaidemetro.com.au/stops/view/15895,,,,
6101,15937,Stop 56 Main South Rd - West side,"LOT 490 Ipari Tce, Morphett Vale",-35.1293283356113,138.52363357623,,http://www.adelaidemetro.com.au/stops/view/15937,,,,
6116,15952,Stop 57 Main South Rd - West side,"47-59 Main South Rd, Morphett Vale",-35.13181,138.523843,,http://www.adelaidemetro.com.au/stops/view/15952,,,,
6149,15985,Stop 58 Main South Rd - West side,"15-25 Main South Rd, Morphett Vale",-35.1350801606532,138.524081589671,,http://www.adelaidemetro.com.au/stops/view/15985,,,,
4548,14416,Stop 15 South Rd - West side,"985 South Rd, Melrose Park",-34.9812731319021,138.573860957532,,http://www.adelaidemetro.com.au/stops/view/14416,,,,
6159,15995,Stop 59 Beach Rd - North side,"412 Beach Rd, Hackham West",-35.13675,138.52239,,http://www.adelaidemetro.com.au/stops/view/15995,,,,
5483,15333,Stop 33 Main South Rd - West side,"LOT 51 Main South Rd, O'Halloran Hill",-35.056387,138.559543,,http://www.adelaidemetro.com.au/stops/view/15333,,,,
5464,15314,Stop 32 Main South Rd - West side,"1551-1553 Main South Rd, O'Halloran Hill",-35.0516780096491,138.559127446045,,http://www.adelaidemetro.com.au/stops/view/15314,,,,
5431,15281,Stop 31 Main South Rd - West side,"1529 Main South Rd, O'Halloran Hill",-35.04686,138.5602,,http://www.adelaidemetro.com.au/stops/view/15281,,,,
5287,15146,Stop 31D Diagonal Rd - South West side,"417 Diagonal Rd, Sturt",-35.0278404721966,138.55532173319,,http://www.adelaidemetro.com.au/stops/view/15146,,,,
5274,15133,Stop 32D Diagonal Rd - South West side,"405 Diagonal Rd, Sturt",-35.0260294920473,138.553744472678,,http://www.adelaidemetro.com.au/stops/view/15133,,,,
5120,14983,Stop 32 Diagonal Rd - West side,"337 Diagonal Rd, Seacombe Gardens",-35.01899,138.54976,,http://www.adelaidemetro.com.au/stops/view/14983,,,,
5102,14965,Zone C Marion Interchange - North side,"199 Sturt Rd, Seacombe Gardens",-35.017518,138.54552,,http://www.adelaidemetro.com.au/stops/view/14965,,,,
5105,14968,Stop 29D Sturt Rd - North side,"245 Sturt Rd, Sturt",-35.01744,138.5512,,http://www.adelaidemetro.com.au/stops/view/14968,,,,
5104,14967,Stop 29C Sturt Rd - North side,"266 Sturt Rd, Marion",-35.0173088852809,138.553707081491,,http://www.adelaidemetro.com.au/stops/view/14967,,,,
5084,14947,Stop 28 Sturt Rd - North side,"346A Sturt Rd, Mitchell Park",-35.016615,138.567005,,http://www.adelaidemetro.com.au/stops/view/14947,,,,
101395,18486,Stop W Grote St - South side,"11-19 Grote St, Adelaide",-34.928834,138.598514,,http://www.adelaidemetro.com.au/stops/view/18486,,,,
6790,16588,Stop Y1 Grote St - South side,"249-273 Grote St, Adelaide",-34.9293219697508,138.58916151543,,http://www.adelaidemetro.com.au/stops/view/16588,,,,
4425,14296,Stop 13 South Rd - West side,"946 South Rd, Edwardstown",-34.97577,138.57349,,http://www.adelaidemetro.com.au/stops/view/14296,,,,
4480,14350,Stop 14 South Rd - West side,"960 South Rd, Edwardstown",-34.977408884447,138.57357433208,,http://www.adelaidemetro.com.au/stops/view/14350,,,,
4575,14443,Stop 16 South Rd - West side,"1022 South Rd, Edwardstown",-34.9836843954792,138.57405771397,,http://www.adelaidemetro.com.au/stops/view/14443,,,,
4356,14227,Stop 11 South Rd - East side,"845 South Rd, Clarence Gardens",-34.97125,138.57335,,http://www.adelaidemetro.com.au/stops/view/14227,,,,
4320,14192,Stop 10 South Rd - West side,"822 South Rd, Edwardstown",-34.9689,138.57285,,http://www.adelaidemetro.com.au/stops/view/14192,,,,
4420,14291,Stop 13 South Rd - East side,"913 South Rd, Clarence Gardens",-34.9755484201865,138.573673007615,,http://www.adelaidemetro.com.au/stops/view/14291,,,,
4475,14345,Stop 14 South Rd - East side,"929 South Rd, Clarence Gardens",-34.9774326654318,138.573809351302,,http://www.adelaidemetro.com.au/stops/view/14345,,,,
4524,14394,Stop 15 South Rd - East side,"985 South Rd, Melrose Park",-34.9812595150094,138.574082394468,,http://www.adelaidemetro.com.au/stops/view/14394,,,,
4350,14221,Stop 11 South Rd - West side,"844-846 South Rd, Edwardstown",-34.97093,138.57313,,http://www.adelaidemetro.com.au/stops/view/14221,,,,
4626,14493,Stop 17 South Rd - East side,"1045 South Rd, Edwardstown",-34.9865030239212,138.574497554947,,http://www.adelaidemetro.com.au/stops/view/14493,,,,
4674,14541,Stop 18 South Rd - East side,"1081-1089 South Rd, Melrose Park",-34.9900637668092,138.57478932119,,http://www.adelaidemetro.com.au/stops/view/14541,,,,
4761,14628,Stop 20 South Rd - East side,"1131 South Rd, St Marys",-34.9945181624236,138.575092078856,,http://www.adelaidemetro.com.au/stops/view/14628,,,,
4799,14664,Stop 21 South Rd - East side,"1167 South Rd, St Marys",-34.9969771145502,138.575269865819,,http://www.adelaidemetro.com.au/stops/view/14664,,,,
4852,14717,Stop 22 South Rd - East side,"1219 South Rd, St Marys",-35.0000439910973,138.575508870676,,http://www.adelaidemetro.com.au/stops/view/14717,,,,
4911,14776,Stop 23 South Rd - East side,"1265 South Rd, St Marys",-35.0036629675021,138.575786224096,,http://www.adelaidemetro.com.au/stops/view/14776,,,,
4939,14804,Stop 24A South Rd - East side,"1297-1301 South Rd, St Marys",-35.0065224615681,138.575990438824,,http://www.adelaidemetro.com.au/stops/view/14804,,,,
4381,14252,Stop 12 South Rd - West side,"868 South Rd, Edwardstown",-34.972840722363,138.573261859975,,http://www.adelaidemetro.com.au/stops/view/14252,,,,
4627,14494,Stop 17 South Rd - West side,"1044-1046 South Rd, Edwardstown",-34.98666,138.57426,,http://www.adelaidemetro.com.au/stops/view/14494,,,,
5065,14928,Stop 26 Main South Rd - South East side,"1379 Main South Rd, Bedford Park",-35.014794,138.572146,,http://www.adelaidemetro.com.au/stops/view/14928,,,,
5074,14937,Stop 27 Sturt Rd - South side,"370 Sturt Rd, Clovelly Park",-35.016808,138.568211,,http://www.adelaidemetro.com.au/stops/view/14937,,,,
5092,14955,Stop 29 Sturt Rd - South side,"331 Sturt Rd, Bedford Park",-35.017026,138.56326,,http://www.adelaidemetro.com.au/stops/view/14955,,,,
5098,14961,Stop 29A Sturt Rd - South side,"321 Sturt Rd, Bedford Park",-35.017168,138.560933,,http://www.adelaidemetro.com.au/stops/view/14961,,,,
5103,14966,Stop 29B Sturt Rd - South side,"295-297 Sturt Rd, Sturt",-35.0173371,138.556379,,http://www.adelaidemetro.com.au/stops/view/14966,,,,
5106,14969,Stop 29C Sturt Rd - South side,"271 Sturt Rd, Sturt",-35.017462,138.553906,,http://www.adelaidemetro.com.au/stops/view/14969,,,,
5110,14973,Stop 29D Sturt Rd - South side,"245 Sturt Rd, Sturt",-35.017592,138.551223,,http://www.adelaidemetro.com.au/stops/view/14973,,,,
5121,14984,Stop 32 Diagonal Rd - East side,"316-320 Diagonal Rd, Seacombe Gardens",-35.0186367008925,138.549973768103,,http://www.adelaidemetro.com.au/stops/view/14984,,,,
5167,15030,Stop 31 Diagonal Rd - East side,"338A Diagonal Rd, Sturt",-35.0209351374554,138.550144314884,,http://www.adelaidemetro.com.au/stops/view/15030,,,,
5242,15101,Stop 33D Diagonal Rd - North East side,"358 Diagonal Rd, Sturt",-35.0228492451385,138.551290551171,,http://www.adelaidemetro.com.au/stops/view/15101,,,,
4668,14535,Stop 18 South Rd - West side,"1076-1078 South Rd, Edwardstown",-34.9894582047615,138.574503535212,,http://www.adelaidemetro.com.au/stops/view/14535,,,,
5271,15130,Stop 31D Diagonal Rd - North East side,"408 Diagonal Rd, Sturt",-35.0278576181584,138.555623622702,,http://www.adelaidemetro.com.au/stops/view/15130,,,,
4708,14575,Stop 19 South Rd - West side,"1098 South Rd, Edwardstown",-34.9919651147003,138.574686074493,,http://www.adelaidemetro.com.au/stops/view/14575,,,,
5435,15285,Stop 31 Main South Rd - South East side,"1527 Main South Rd, O'Halloran Hill",-35.0477391741534,138.560303155796,,http://www.adelaidemetro.com.au/stops/view/15285,,,,
5467,15317,Stop 32 Main South Rd - East side,"1551 Main South Rd, O'Halloran Hill",-35.05228,138.55961,,http://www.adelaidemetro.com.au/stops/view/15317,,,,
5487,15337,Stop 33 Main South Rd - East side,"LOT 51 Main South Rd, O'Halloran Hill",-35.05689,138.560001,,http://www.adelaidemetro.com.au/stops/view/15337,,,,
5512,15362,Stop 34 Main South Rd - East side,"9A Main South Rd, O'Halloran Hill",-35.0617137431171,138.558623871173,,http://www.adelaidemetro.com.au/stops/view/15362,,,,
5552,15401,Stop 35 Main South Rd - East side,"61 Main South Rd, O'Halloran Hill",-35.06617,138.55511,,http://www.adelaidemetro.com.au/stops/view/15401,,,,
5573,15421,Stop 36 Main South Rd - East side,"81-85 Main South Rd, O'Halloran Hill",-35.06784,138.55499,,http://www.adelaidemetro.com.au/stops/view/15421,,,,
5607,15451,Stop 37 Main South Rd - East side,"131 Main South Rd, O'Halloran Hill",-35.07107,138.55421,,http://www.adelaidemetro.com.au/stops/view/15451,,,,
3903,13781,Stop 2 Anzac Hwy - North West side,"29 Anzac Hwy, Keswick",-34.946188862,138.57926876,,http://www.adelaidemetro.com.au/stops/view/13781,,,,
3822,13700,Stop 1 Anzac Hwy - North West side,"1 Greenhill Rd, Wayville",-34.9411725848847,138.58346360502,,http://www.adelaidemetro.com.au/stops/view/13700,,,,
3414,13301,Stop B1 King William St - East side,"12 King William St, Adelaide",-34.9220497181882,138.599591096317,,http://www.adelaidemetro.com.au/stops/view/13301,,,,
5792,15632,Stop 42 Old South Rd - East side,"243-245 Old South Rd, Old Reynella",-35.0867699848041,138.544218606304,,http://www.adelaidemetro.com.au/stops/view/15632,,,,
5809,15649,Stop 43 Old South Rd - East side,"228 Old South Rd, Old Reynella",-35.0889362503757,138.54168776145,,http://www.adelaidemetro.com.au/stops/view/15649,,,,
5847,15687,Stop 44 Old South Rd - East side,"163-173 Old South Rd, Old Reynella",-35.09293,138.53994,,http://www.adelaidemetro.com.au/stops/view/15687,,,,
100011,17120,Zone C Old Reynella Interchange,"141 Old South Rd, Old Reynella",-35.0955936251095,138.537710859004,,http://www.adelaidemetro.com.au/stops/view/17120,,,,
5874,15711,Stop 45A Old South Rd - South East side,"133 Old South Rd, Old Reynella",-35.09655,138.53651,,http://www.adelaidemetro.com.au/stops/view/15711,,,,
5882,15719,Stop 46 Main South Rd - South East side,"112 Main South Rd, Old Reynella",-35.0983,138.53417,,http://www.adelaidemetro.com.au/stops/view/15719,,,,
5897,15734,Stop 47 Main South Rd - South East side,"LOT 60 Main South Rd, Old Reynella",-35.1011802776775,138.531175282625,,http://www.adelaidemetro.com.au/stops/view/15734,,,,
5914,15751,Stop 48 Main South Rd - East side,"10 Main South Rd, Old Reynella",-35.10415,138.52846,,http://www.adelaidemetro.com.au/stops/view/15751,,,,
5946,15783,Stop 49 Main South Rd - South East side,"346-350 Main South Rd, Morphett Vale",-35.10738,138.52537,,http://www.adelaidemetro.com.au/stops/view/15783,,,,
5960,15797,Stop 50 Main South Rd - South East side,"330 Main South Rd, Morphett Vale",-35.10891,138.52386,,http://www.adelaidemetro.com.au/stops/view/15797,,,,
5982,15818,Stop 51 Main South Rd - East side,"248-252 Main South Rd, Morphett Vale",-35.11293,138.52273,,http://www.adelaidemetro.com.au/stops/view/15818,,,,
4763,14630,Stop 20 South Rd - West side,"1140 South Rd, Clovelly Park",-34.994152,138.574857,,http://www.adelaidemetro.com.au/stops/view/14630,,,,
6040,15876,Stop 53 Main South Rd - East side,"160-172 Main South Rd, Morphett Vale",-35.1201977892058,138.523261818745,,http://www.adelaidemetro.com.au/stops/view/15876,,,,
6046,15882,Stop 54 Main South Rd - East side,"140-148 Main South Rd, Morphett Vale",-35.1220807721433,138.523396058877,,http://www.adelaidemetro.com.au/stops/view/15882,,,,
6062,15898,Stop 55 Main South Rd - East side,"100-114 Main South Rd, Morphett Vale",-35.125677665972,138.523661987693,,http://www.adelaidemetro.com.au/stops/view/15898,,,,
6097,15933,Stop 56 Main South Rd - East side,"88 Main South Rd, Morphett Vale",-35.129121256883,138.523921488345,,http://www.adelaidemetro.com.au/stops/view/15933,,,,
6120,15956,Stop 57 Main South Rd - East side,"46-60 Main South Rd, Morphett Vale",-35.1320549937447,138.52413607733,,http://www.adelaidemetro.com.au/stops/view/15956,,,,
6143,15979,Stop 58 Main South Rd - East side,"30-32 Main South Rd, Morphett Vale",-35.1343,138.5243,,http://www.adelaidemetro.com.au/stops/view/15979,,,,
6160,15996,Stop 59 Beach Rd - South side,"412 Beach Rd, Hackham West",-35.1369128642066,138.52268218663,,http://www.adelaidemetro.com.au/stops/view/15996,,,,
6168,16004,Stop 60 Beach Rd - South side,"378 Beach Rd, Hackham West",-35.13714,138.51891,,http://www.adelaidemetro.com.au/stops/view/16004,,,,
6170,16006,Stop 61 Beach Rd - South side,"340-350 Beach Rd, Hackham West",-35.13729,138.51536,,http://www.adelaidemetro.com.au/stops/view/16006,,,,
6172,16008,Stop 62 Beach Rd - South side,"324-328 Beach Rd, Hackham West",-35.13744,138.5124,,http://www.adelaidemetro.com.au/stops/view/16008,,,,
6175,16011,Stop 63 Beach Rd - South side,"226 Beach Rd, Hackham West",-35.1376718475417,138.507299548157,,http://www.adelaidemetro.com.au/stops/view/16011,,,,
6176,16012,Stop 64 Beach Rd - South side,"LOT 51 Beach Rd, Noarlunga Centre",-35.1378612447254,138.503622564905,,http://www.adelaidemetro.com.au/stops/view/16012,,,,
6191,16027,Stop 64A Alexander Kelly Dr - South side,"9 Alexander Kelly Dr, Noarlunga Centre",-35.1389763935759,138.499220238718,,http://www.adelaidemetro.com.au/stops/view/16027,,,,
6203,16039,Zone D Colonnades Interchange,"LOT 55 Beach Rd, Noarlunga Centre",-35.1397309259623,138.496095876429,,http://www.adelaidemetro.com.au/stops/view/16039,,,,
3413,13300,Stop Y2 King William St - West side,"1 King William St, Adelaide",-34.9219210388771,138.599279872209,,http://www.adelaidemetro.com.au/stops/view/13300,,,,
3474,13361,Stop W2 King William St - West side,"89 King William St, Adelaide",-34.924715901029,138.599485201363,,http://www.adelaidemetro.com.au/stops/view/13361,,,,
4811,14676,Stop 21 South Rd - West side,"1178 South Rd, Clovelly Park",-34.9975466667464,138.575095455195,,http://www.adelaidemetro.com.au/stops/view/14676,,,,
4856,14721,Stop 22 South Rd - West side,"1212 South Rd, Clovelly Park",-35.00024,138.57533,,http://www.adelaidemetro.com.au/stops/view/14721,,,,
4892,14757,Stop 23 South Rd - West side,"1246-1248 South Rd, Clovelly Park",-35.00228,138.57548,,http://www.adelaidemetro.com.au/stops/view/14757,,,,
4916,14781,Stop 24 South Rd - West side,"1274 South Rd, Clovelly Park",-35.0045464845164,138.575629968428,,http://www.adelaidemetro.com.au/stops/view/14781,,,,
4952,14817,Stop 24A South Rd - West side,"1301 South Rd, St Marys",-35.0073541284016,138.575721202502,,http://www.adelaidemetro.com.au/stops/view/14817,,,,
5063,14926,Stop 26 Main South Rd - North West side,"1379-1383 Main South Rd, Bedford Park",-35.0153348157682,138.57099674465,,http://www.adelaidemetro.com.au/stops/view/14926,,,,
5162,15025,Stop 31 Diagonal Rd - West side,"355 Diagonal Rd, Seacombe Gardens",-35.02063,138.54992,,http://www.adelaidemetro.com.au/stops/view/15025,,,,
5238,15097,Stop 33D Diagonal Rd - South West side,"375 Diagonal Rd, Sturt",-35.0231283689429,138.551237695327,,http://www.adelaidemetro.com.au/stops/view/15097,,,,
4156,14031,Stop 8 South Rd - East side,"685-687 South Rd, Black Forest",-34.96132,138.57262,,http://www.adelaidemetro.com.au/stops/view/14031,,,,
3816,13694,Stop 1 Anzac Hwy - South East side,"2-3 Greenhill Rd, Wayville",-34.9411569727974,138.584131481011,,http://www.adelaidemetro.com.au/stops/view/13694,,,,
4035,13910,Stop 6 South Rd - East side,"589 South Rd, Everard Park",-34.9547337400797,138.5721266186,,http://www.adelaidemetro.com.au/stops/view/13910,,,,
3686,13566,Stop J1 West Tce - East side,"179 West Tce, Adelaide",-34.934336,138.588427,,http://www.adelaidemetro.com.au/stops/view/13566,,,,
4213,14087,Stop 9 South Rd - East side,"747 South Rd, Black Forest",-34.964705948206,138.572950230953,,http://www.adelaidemetro.com.au/stops/view/14087,,,,
3897,13775,Stop 2 Anzac Hwy - South East side,"25A Anzac Hwy, Keswick",-34.94566,138.58013,,http://www.adelaidemetro.com.au/stops/view/13775,,,,
4211,14085,Stop 9 South Rd - West side,"714-766 South Rd, Glandore",-34.96466,138.57257,,http://www.adelaidemetro.com.au/stops/view/14085,,,,
4159,14034,Stop 8 South Rd - West side,"686 South Rd, Glandore",-34.9614434153598,138.572435410927,,http://www.adelaidemetro.com.au/stops/view/14034,,,,
4121,13996,Stop 7 South Rd - West side,"635 South Rd, Black Forest",-34.958671,138.572211,,http://www.adelaidemetro.com.au/stops/view/13996,,,,
100850,17942,Stop 6 South Rd - West side,"112 Anzac Hwy, Glandore",-34.95407,138.57129,,http://www.adelaidemetro.com.au/stops/view/17942,,,,
3995,13870,Stop 4 Anzac Hwy - North West side,"93 Anzac Hwy, Ashford",-34.951418792,138.57391815,,http://www.adelaidemetro.com.au/stops/view/13870,,,,
3952,13829,Stop 3 Anzac Hwy - North West side,"63-67 Anzac Hwy, Ashford",-34.949330692,138.576567204,,http://www.adelaidemetro.com.au/stops/view/13829,,,,
3667,13549,Stop R1 West Tce - West side,"164 West Tce, Adelaide",-34.933023,138.587921,,http://www.adelaidemetro.com.au/stops/view/13549,,,,
3578,13465,Stop B1 Grote St - North side,"250-300 Grote St, Adelaide",-34.9290924455468,138.588532752638,,http://www.adelaidemetro.com.au/stops/view/13465,,,,
3572,13459,Stop B2 Grote St - North side,"188-198 Grote St, Adelaide",-34.9289205164883,138.591800063577,,http://www.adelaidemetro.com.au/stops/view/13459,,,,
3566,13453,Stop D1 Grote St - North side,"116 Grote St, Adelaide",-34.9287480281756,138.595154757644,,http://www.adelaidemetro.com.au/stops/view/13453,,,,
3565,13452,Stop D2 Grote St - North side,"58-62 Grote St, Adelaide",-34.9286805727236,138.596949259223,,http://www.adelaidemetro.com.au/stops/view/13452,,,,
6460,16291,Stop U1 Victoria Sq - North West side,"193 Victoria Square, Adelaide",-34.9277079698949,138.599306149146,,http://www.adelaidemetro.com.au/stops/view/16291,,,,
6444,16275,Stop Z2 King William Rd - West side,"LOT 747 North Tce, Adelaide",-34.9206180224544,138.599196819126,,http://www.adelaidemetro.com.au/stops/view/16275,,,,
6451,16282,Stop C2 King William St - East side,"62-64 King William St, Adelaide",-34.923706546644,138.599724222691,,http://www.adelaidemetro.com.au/stops/view/16282,,,,
6455,16286,Stop D2 King William St - East side,"96 King William St, Adelaide",-34.9251280496958,138.59984013168,,http://www.adelaidemetro.com.au/stops/view/16286,,,,
3574,13461,Stop X1 Grote St - South side,"177 Grote St, Adelaide",-34.9291636624229,138.592361083842,,http://www.adelaidemetro.com.au/stops/view/13461,,,,
3614,13496,Stop H1 West Tce - East side,"127-131 West Tce, Adelaide",-34.931411978443,138.588222892015,,http://www.adelaidemetro.com.au/stops/view/13496,,,,
3937,13814,Stop 3 Anzac Hwy - South East side,"6 Anzac Hwy, Forestville",-34.9485748125417,138.577647633495,,http://www.adelaidemetro.com.au/stops/view/13814,,,,
3983,13860,Stop 4 Anzac Hwy - South East side,"40-42 Anzac Hwy, Everard Park",-34.9509889994115,138.575129883682,,http://www.adelaidemetro.com.au/stops/view/13860,,,,
4026,13901,Stop 5 Anzac Hwy - South East side,"76-78 Anzac Hwy, Everard Park",-34.9524620717598,138.572923287419,,http://www.adelaidemetro.com.au/stops/view/13901,,,,
4095,13970,Stop 7 South Rd - East side,"631 South Rd, Everard Park",-34.958361,138.572401,,http://www.adelaidemetro.com.au/stops/view/13970,,,,
4296,14168,Stop 10 South Rd - East side,"807 South Rd, Clarence Gardens",-34.96807,138.57321,,http://www.adelaidemetro.com.au/stops/view/14168,,,,
4390,14261,Stop 12 South Rd - East side,"885 South Rd, Clarence Gardens",-34.9736235260758,138.57352707621,,http://www.adelaidemetro.com.au/stops/view/14261,,,,
4580,14448,Stop 16 South Rd - East side,"1015-1019 South Rd, Melrose Park",-34.98385,138.5743,,http://www.adelaidemetro.com.au/stops/view/14448,,,,
4989,14854,Stop 25 South Rd - East side,"LOT 2 South Rd, St Marys",-35.00939,138.57625,,http://www.adelaidemetro.com.au/stops/view/14854,,,,
5029,14894,Stop 25A Main South Rd - South East side,"1333 Main South Rd, Bedford Park",-35.011951,138.575414,,http://www.adelaidemetro.com.au/stops/view/14894,,,,
100258,17362,Stop 32D Diagonal Rd - North East side,"392 Diagonal Rd, Sturt",-35.0259053722609,138.553922847339,,http://www.adelaidemetro.com.au/stops/view/17362,,,,
5315,15171,Stop 30A Main South Rd - South East side,"1517 Main South Rd, Darlington",-35.0296387511925,138.557040354794,,http://www.adelaidemetro.com.au/stops/view/15171,,,,
5639,15482,Stop 38 Main South Rd - South East side,"23 Mellors Ave, O'Halloran Hill",-35.07382,138.55208,,http://www.adelaidemetro.com.au/stops/view/15482,,,,
100782,17877,Stop 39 Main South Rd - East side,"1732 Main South Rd, O'Halloran Hill",-35.0780212298099,138.548719019042,,http://www.adelaidemetro.com.au/stops/view/17877,,,,
5721,15561,Stop 40 Panalatinga Rd - East side,"LOT 443 Main South Rd, Happy Valley",-35.08262,138.54659,,http://www.adelaidemetro.com.au/stops/view/15561,,,,
6019,15855,Stop 52 Main South Rd - East side,"230 Main South Rd, Morphett Vale",-35.1166,138.52301,,http://www.adelaidemetro.com.au/stops/view/15855,,,,
100098,17204,Stop 85 The Parade - South side,"10 The Parade, Seaford",-35.191361072275,138.479488300706,,http://www.adelaidemetro.com.au/stops/view/17204,,,,
6378,16213,Stop 84 Commercial Rd - West side,"329 Commercial Rd, Seaford",-35.18669,138.47709,,http://www.adelaidemetro.com.au/stops/view/16213,,,,
6368,16203,Stop 83 Commercial Rd - West side,"293 Commercial Rd, Seaford",-35.183425290747,138.476827160805,,http://www.adelaidemetro.com.au/stops/view/16203,,,,
6364,16199,Stop 82 Commercial Rd - West side,"275 Commercial Rd, Seaford",-35.1814880422381,138.476663205763,,http://www.adelaidemetro.com.au/stops/view/16199,,,,
6355,16190,Stop 81 Commercial Rd - West side,"227 Commercial Rd, Port Noarlunga South",-35.1768930672044,138.476302495512,,http://www.adelaidemetro.com.au/stops/view/16190,,,,
6349,16184,Stop 80 Commercial Rd - West side,"203 Commercial Rd, Port Noarlunga South",-35.17414,138.47611,,http://www.adelaidemetro.com.au/stops/view/16184,,,,
6344,16179,Stop 79 Commercial Rd - West side,"171 Commercial Rd, Port Noarlunga South",-35.1712446925284,138.475860500763,,http://www.adelaidemetro.com.au/stops/view/16179,,,,
6338,16174,Stop 78 Commercial Rd - West side,"147 Commercial Rd, Port Noarlunga South",-35.16893,138.47571,,http://www.adelaidemetro.com.au/stops/view/16174,,,,
6334,16170,Stop 77 Commercial Rd - West side,"105 Commercial Rd, Port Noarlunga South",-35.16519,138.47536,,http://www.adelaidemetro.com.au/stops/view/16170,,,,
6330,16166,Stop 76 Commercial Rd - West side,"59 Commercial Rd, Port Noarlunga South",-35.1611088726757,138.475071656663,,http://www.adelaidemetro.com.au/stops/view/16166,,,,
6325,16161,Stop 75 Commercial Rd - West side,"33-35 Commercial Rd, Port Noarlunga South",-35.1588638299057,138.474893478821,,http://www.adelaidemetro.com.au/stops/view/16161,,,,
6312,16148,Stop 74 Saltfleet St - South West side,"LOT 2 Onkaparinga River National Park, Port Noarlunga",-35.1536,138.47402,,http://www.adelaidemetro.com.au/stops/view/16148,,,,
6300,16136,Stop 73 Saltfleet St - South West side,"42 Saltfleet St, Port Noarlunga",-35.150642,138.471765,,http://www.adelaidemetro.com.au/stops/view/16136,,,,
100260,17363,Stop 72A Witton Rd - West side,"4 Witton Rd, Port Noarlunga",-35.1481848315698,138.470228336873,,http://www.adelaidemetro.com.au/stops/view/17363,,,,
6269,16105,Stop 72 Witton Rd - South West side,"17 Witton Rd, Port Noarlunga",-35.1472260139175,138.46970028248,,http://www.adelaidemetro.com.au/stops/view/16105,,,,
6246,16082,Stop 71 Witton Rd - West side,"41 Witton Rd, Port Noarlunga",-35.1446591427062,138.469495715958,,http://www.adelaidemetro.com.au/stops/view/16082,,,,
6224,16060,Stop 70 Witton Rd - North West side,"61 Witton Rd, Christies Beach",-35.14215,138.47043,,http://www.adelaidemetro.com.au/stops/view/16060,,,,
6214,16050,Stop 69A Witton Rd - West side,"75 Witton Rd, Christies Beach",-35.14085,138.47141,,http://www.adelaidemetro.com.au/stops/view/16050,,,,
6196,16032,Stop 69 Beach Rd - North side,"21 Beach Rd, Christies Beach",-35.1393,138.47268,,http://www.adelaidemetro.com.au/stops/view/16032,,,,
6193,16029,Stop 68 Beach Rd - North side,"61-63 Beach Rd, Christies Beach",-35.1390964677729,138.476700339863,,http://www.adelaidemetro.com.au/stops/view/16029,,,,
6190,16026,Stop 67 Beach Rd - North side,"101 Beach Rd, Christies Beach",-35.13888,138.48128,,http://www.adelaidemetro.com.au/stops/view/16026,,,,
6187,16023,Stop 66 Beach Rd - North side,"139 Beach Rd, Christies Beach",-35.1386749491128,138.484929491496,,http://www.adelaidemetro.com.au/stops/view/16023,,,,
6180,16016,Stop 65 Beach Rd - North side,"150-158 Beach Rd, Noarlunga Centre",-35.13845,138.48868,,http://www.adelaidemetro.com.au/stops/view/16016,,,,
5863,15701,Stop 45A Grant Rd - South side,"82 Grant Rd, Reynella",-35.0942820211654,138.534870972191,,http://www.adelaidemetro.com.au/stops/view/15701,,,,
6179,16015,Stop 65 Beach Rd - South side,"160-168 Beach Rd, Noarlunga Centre",-35.1385878234686,138.489311615531,,http://www.adelaidemetro.com.au/stops/view/16015,,,,
6184,16020,Stop 66 Beach Rd - South side,"120 Beach Rd, Christies Beach",-35.1389261073074,138.483641566464,,http://www.adelaidemetro.com.au/stops/view/16020,,,,
6188,16024,Stop 67 Beach Rd - South side,"90 Beach Rd, Christies Beach",-35.13909,138.48021,,http://www.adelaidemetro.com.au/stops/view/16024,,,,
6192,16028,Stop 68 Beach Rd - South side,"69 Beach Rd, Christies Beach",-35.1392330831762,138.477385436204,,http://www.adelaidemetro.com.au/stops/view/16028,,,,
6197,16033,Stop 69 Beach Rd - South side,"27A Beach Rd, Christies Beach",-35.1394366553685,138.473051819331,,http://www.adelaidemetro.com.au/stops/view/16033,,,,
6207,16043,Stop 69A Witton Rd - East side,"76 Witton Rd, Christies Beach",-35.1400401366067,138.471794052545,,http://www.adelaidemetro.com.au/stops/view/16043,,,,
6223,16059,Stop 70 Witton Rd - South East side,"46 Witton Rd, Christies Beach",-35.1423151227015,138.470392580231,,http://www.adelaidemetro.com.au/stops/view/16059,,,,
6245,16081,Stop 71 Witton Rd - East side,"30-32 Witton Rd, Port Noarlunga",-35.14493,138.46964,,http://www.adelaidemetro.com.au/stops/view/16081,,,,
6275,16111,Stop 72 Witton Rd - North East side,"12 Witton Rd, Port Noarlunga",-35.1475616149146,138.470069854005,,http://www.adelaidemetro.com.au/stops/view/16111,,,,
6292,16128,Stop 73 Saltfleet St - North East side,"33 Saltfleet St, Port Noarlunga",-35.1495511497667,138.471268783536,,http://www.adelaidemetro.com.au/stops/view/16128,,,,
6313,16149,Stop 74 Saltfleet St - North East side,"LOT 2 Onkaparinga River National Park, Port Noarlunga",-35.1535206923744,138.474130994736,,http://www.adelaidemetro.com.au/stops/view/16149,,,,
6326,16162,Stop 75 Commercial Rd - East side,"24 Commercial Rd, Port Noarlunga South",-35.1588543763439,138.475075658856,,http://www.adelaidemetro.com.au/stops/view/16162,,,,
6331,16167,Stop 76 Commercial Rd - East side,"61 Commercial Rd, Port Noarlunga South",-35.1612469099587,138.475309037611,,http://www.adelaidemetro.com.au/stops/view/16167,,,,
6333,16169,Stop 77 Commercial Rd - East side,"105 Commercial Rd, Port Noarlunga South",-35.1650397910907,138.475593106738,,http://www.adelaidemetro.com.au/stops/view/16169,,,,
6337,16173,Stop 78 Commercial Rd - East side,"145 Commercial Rd, Port Noarlunga South",-35.1687103987738,138.475897964153,,http://www.adelaidemetro.com.au/stops/view/16173,,,,
6345,16180,Stop 79 Commercial Rd - East side,"171 Commercial Rd, Port Noarlunga South",-35.1710601104472,138.476081778409,,http://www.adelaidemetro.com.au/stops/view/16180,,,,
6350,16185,Stop 80 Commercial Rd - East side,"201 Commercial Rd, Port Noarlunga South",-35.1740291257528,138.476307397725,,http://www.adelaidemetro.com.au/stops/view/16185,,,,
6354,16189,Stop 81 Commercial Rd - East side,"227 Commercial Rd, Port Noarlunga South",-35.1768299380044,138.476531720888,,http://www.adelaidemetro.com.au/stops/view/16189,,,,
6358,16193,Stop 82 Commercial Rd - East side,"259 Commercial Rd, Seaford",-35.1798190045973,138.476814701898,,http://www.adelaidemetro.com.au/stops/view/16193,,,,
6370,16205,Stop 83 Commercial Rd - East side,"293 Commercial Rd, Seaford",-35.1834371926907,138.477040637528,,http://www.adelaidemetro.com.au/stops/view/16205,,,,
6375,16210,Stop 84 Commercial Rd - East side,"325 Commercial Rd, Seaford",-35.1863308286256,138.477246469201,,http://www.adelaidemetro.com.au/stops/view/16210,,,,
100097,17203,Stop 85 The Parade - North side,"8 The Parade, Seaford",-35.191217,138.479809,,http://www.adelaidemetro.com.au/stops/view/17203,,,,
253,10244,Stop 63 Philip Hwy - East side,"9 Philip Hwy, Elizabeth",-34.7213955882407,138.669665060659,,http://www.adelaidemetro.com.au/stops/view/10244,,,,
258,10249,Stop 62 Philip Hwy - South East side,"27 Philip Hwy, Elizabeth",-34.72341,138.66822,,http://www.adelaidemetro.com.au/stops/view/10249,,,,
268,10259,Stop 61 Philip Hwy - South East side,"47-49 Philip Hwy, Elizabeth",-34.7267506274417,138.666138341151,,http://www.adelaidemetro.com.au/stops/view/10259,,,,
274,10265,Stop 60 Philip Hwy - South East side,"73 Philip Hwy, Elizabeth South",-34.7296610116098,138.664288034225,,http://www.adelaidemetro.com.au/stops/view/10265,,,,
285,10276,Stop 59 Philip Hwy - South East side,"107 Philip Hwy, Elizabeth South",-34.7330463952563,138.662246187579,,http://www.adelaidemetro.com.au/stops/view/10276,,,,
297,10288,Stop 58 Philip Hwy - South East side,"149 Philip Hwy, Elizabeth South",-34.73614,138.66015,,http://www.adelaidemetro.com.au/stops/view/10288,,,,
100346,17447,Stop 57 Philip Hwy - East side,"169 Philip Hwy, Elizabeth South",-34.73935,138.65822,,http://www.adelaidemetro.com.au/stops/view/17447,,,,
356,10347,Stop 56 Philip Hwy - East side,"179 Philip Hwy, Elizabeth South",-34.7425878202371,138.657632894038,,http://www.adelaidemetro.com.au/stops/view/10347,,,,
100157,17263,Stop 55A Philip Hwy - East side,"175 Philip Hwy, Elizabeth South",-34.744925079401,138.657649727469,,http://www.adelaidemetro.com.au/stops/view/17263,,,,
100778,17873,Stop 53A John Rice Ave - South side,"179-189 John Rice Ave, Elizabeth South",-34.7518918107778,138.655630782713,,http://www.adelaidemetro.com.au/stops/view/17873,,,,
101027,18119,Stop 53N John Rice Ave (Hail N Ride) - South side,"4 Salisbury Hwy, Salisbury",-34.753328,138.650079,,http://www.adelaidemetro.com.au/stops/view/18119,,,,
100870,17962,Stop 34U Salisbury Hwy - East side,"569 Salisbury Hwy, Green Fields",-34.798039,138.609915,,http://www.adelaidemetro.com.au/stops/view/17962,,,,
100761,17859,Stop 34P Elder Smith Rd - North side,"Elder Smith Rd, Mawson Lakes",-34.802065,138.608957,,http://www.adelaidemetro.com.au/stops/view/17859,,,,
100437,17535,Stop 34L Main St - East side,"33-37 Main St, Mawson Lakes",-34.8071272585034,138.617080165253,,http://www.adelaidemetro.com.au/stops/view/17535,,,,
100438,17536,Zone B Mawson Central Interchange - South side,"University Pde, Mawson Lakes",-34.8102748498282,138.616024732158,,http://www.adelaidemetro.com.au/stops/view/17536,,,,
100159,17265,Stop 33F Mawson Lakes Blvd - South side,"11 Willowood Ct, Mawson Lakes",-34.8111141230956,138.610331621226,,http://www.adelaidemetro.com.au/stops/view/17265,,,,
100278,17380,Stop 33D Mawson Lakes Blvd - North side,"255-263 Mawson Lakes Blvd, Mawson Lakes",-34.8176543896799,138.608786689762,,http://www.adelaidemetro.com.au/stops/view/17380,,,,
100276,17378,Stop 33C Mawson Lakes Blvd - East side,"295 Mawson Lakes Blvd, Mawson Lakes",-34.8194997937439,138.611500934073,,http://www.adelaidemetro.com.au/stops/view/17378,,,,
100274,17376,Stop 33B Mawson Lakes Blvd - East side,"322-324 Mawson Lakes Blvd, Mawson Lakes",-34.8217409670756,138.611446030408,,http://www.adelaidemetro.com.au/stops/view/17376,,,,
1281,11236,Stop 33 Main North Rd - South East side,"889 Main North Rd, Pooraka",-34.8254688084773,138.616999939117,,http://www.adelaidemetro.com.au/stops/view/11236,,,,
2189,12098,Stop 19 Main North Rd - East side,"323 Main North Rd, Enfield",-34.8681838785321,138.601716800425,,http://www.adelaidemetro.com.au/stops/view/12098,,,,
1328,11283,Stop 32 Main North Rd - East side,"859-863 Main North Rd, Pooraka",-34.8282972328224,138.614740300651,,http://www.adelaidemetro.com.au/stops/view/11283,,,,
3589,13474,Stop VS3 Victoria Sq - East side,"242 Victoria Square, Adelaide",-34.929508,138.600901,,http://www.adelaidemetro.com.au/stops/view/13474,,,,
6459,16290,Stop U2 Victoria Sq - North West side,"185-191 Victoria Square, Adelaide",-34.9274482473138,138.599473172396,,http://www.adelaidemetro.com.au/stops/view/16290,,,,
6448,16279,Stop X2 King William St - West side,"45 King William St, Adelaide",-34.923604,138.599425,,http://www.adelaidemetro.com.au/stops/view/16279,,,,
6446,16277,Stop Z1 King William Rd - West side,"LOT 747 North Tce, Adelaide",-34.921033375214,138.599233701311,,http://www.adelaidemetro.com.au/stops/view/16277,,,,
1401,11355,Stop 31 Main North Rd - South East side,"809-811 Main North Rd, Pooraka",-34.8317017030993,138.612234712591,,http://www.adelaidemetro.com.au/stops/view/11355,,,,
3200,13091,Stop 2 / Zone A King William Rd - West side,"37 King William Rd, North Adelaide",-34.9121895440034,138.598614616038,,http://www.adelaidemetro.com.au/stops/view/13091,,,,
3158,13049,Stop 3 O'Connell St - West side,"11-19 O'Connell St, North Adelaide",-34.9089094857324,138.596849541943,,http://www.adelaidemetro.com.au/stops/view/13049,,,,
3111,13003,Stop 4 O'Connell St - West side,"85 O'Connell St, North Adelaide",-34.9065783286769,138.595957059969,,http://www.adelaidemetro.com.au/stops/view/13003,,,,
3038,12930,Stop 5 O'Connell St - West side,"141-153 O'Connell St, North Adelaide",-34.9044066625112,138.595198097158,,http://www.adelaidemetro.com.au/stops/view/12930,,,,
3009,12901,Stop 6 O'Connell St - West side,"191 O'Connell St, North Adelaide",-34.9029469833464,138.594659441021,,http://www.adelaidemetro.com.au/stops/view/12901,,,,
2920,12814,Stop 7 Main North Rd - North West side,"10 Main North Rd, Thorngate",-34.8976012151352,138.598293569807,,http://www.adelaidemetro.com.au/stops/view/12814,,,,
2883,12781,Stop 8 Main North Rd - West side,"28-30 Main North Rd, Prospect",-34.895741325569,138.600561143323,,http://www.adelaidemetro.com.au/stops/view/12781,,,,
2847,12745,Stop 9 Main North Rd - North West side,"56 Main North Rd, Prospect",-34.89422,138.60237,,http://www.adelaidemetro.com.au/stops/view/12745,,,,
1457,11405,Stop 30 Main North Rd - East side,"791 Main North Rd, Pooraka",-34.8335625780541,138.610890893756,,http://www.adelaidemetro.com.au/stops/view/11405,,,,
1500,11444,Stop 29 Main North Rd - East side,"599 Main North Rd, Gepps Cross",-34.83673,138.60883,,http://www.adelaidemetro.com.au/stops/view/11444,,,,
1560,11497,Stop 28 Main North Rd - East side,"593-597 Main North Rd, Gepps Cross",-34.84064,138.6059,,http://www.adelaidemetro.com.au/stops/view/11497,,,,
1582,11515,Stop 27A Main North Rd - East side,"700B Main North Rd, Gepps Cross",-34.8422473314148,138.60475455828,,http://www.adelaidemetro.com.au/stops/view/11515,,,,
2565,12465,Stop 14 Main North Rd - West side,"196A Main North Rd, Prospect",-34.8818655561311,138.602436071019,,http://www.adelaidemetro.com.au/stops/view/12465,,,,
1615,11545,Stop 27 Main North Rd - East side,"531-549 Main North Rd, Gepps Cross",-34.8440043092129,138.603476407366,,http://www.adelaidemetro.com.au/stops/view/11545,,,,
537,10522,Stop 50 Salisbury Hwy - South East side,"22 Salisbury Hwy, Salisbury",-34.7563395092402,138.646750357037,,http://www.adelaidemetro.com.au/stops/view/10522,,,,
3147,13038,Stop 3 O'Connell St - East side,"34 O'Connell St, North Adelaide",-34.9080906717345,138.596759551956,,http://www.adelaidemetro.com.au/stops/view/13038,,,,
2183,12092,Stop 19 Main North Rd - West side,"336 Main North Rd, Blair Athol",-34.86816,138.60147,,http://www.adelaidemetro.com.au/stops/view/12092,,,,
744,10717,Stop 39 Salisbury Hwy - East side,"27 Seabright Ave, Parafield Gardens",-34.7832018552806,138.622985744482,,http://www.adelaidemetro.com.au/stops/view/10717,,,,
3127,13019,Stop 4 O'Connell St - East side,"68-72 O'Connell St, North Adelaide",-34.9069961297948,138.596370596664,,http://www.adelaidemetro.com.au/stops/view/13019,,,,
790,10761,Stop 37 Salisbury Hwy - South East side,"458 Salisbury Hwy, Parafield Gardens",-34.78778,138.61892,,http://www.adelaidemetro.com.au/stops/view/10761,,,,
3010,12902,Stop 6 O'Connell St - East side,"191 O'Connell St, North Adelaide",-34.9028754738879,138.594915827155,,http://www.adelaidemetro.com.au/stops/view/12902,,,,
2960,12854,Stop 6A Main North Rd - South East side,"2 Main North Rd, Thorngate",-34.900158,138.596123,,http://www.adelaidemetro.com.au/stops/view/12854,,,,
2928,12822,Stop 7 Main North Rd - South East side,"2 Robe Tce, Medindie",-34.8981545078877,138.598030000704,,http://www.adelaidemetro.com.au/stops/view/12822,,,,
1660,11586,Stop 26 Main North Rd - West side,"576-580 Main North Rd, Gepps Cross",-34.84541,138.60198,,http://www.adelaidemetro.com.au/stops/view/11586,,,,
1609,11540,Stop 27 Main North Rd - West side,"600-622 Main North Rd, Gepps Cross",-34.84364,138.60327,,http://www.adelaidemetro.com.au/stops/view/11540,,,,
1564,11500,Stop 28 Main North Rd - West side,"648-652 Main North Rd, Dry Creek",-34.84127,138.60501,,http://www.adelaidemetro.com.au/stops/view/11500,,,,
2873,12771,Stop 8 Main North Rd - East side,"29 Main North Rd, Medindie",-34.8954656335855,138.60119055853,,http://www.adelaidemetro.com.au/stops/view/12771,,,,
1450,11400,Stop 30 Main North Rd - West side,"LOT 5007 Main North Rd, Pooraka",-34.83324,138.6107,,http://www.adelaidemetro.com.au/stops/view/11400,,,,
1400,11354,Stop 31 Main North Rd - West side,"830 Main North Rd, Pooraka",-34.83155,138.61189,,http://www.adelaidemetro.com.au/stops/view/11354,,,,
1323,11278,Stop 32 Main North Rd - West side,"868-872 Main North Rd, Pooraka",-34.82769,138.61469,,http://www.adelaidemetro.com.au/stops/view/11278,,,,
1228,11183,Stop 33A Mawson Lakes Blvd - South West side,"LOT 59 Mawson Lakes Blvd, Mawson Lakes",-34.8233,138.61313,,http://www.adelaidemetro.com.au/stops/view/11183,,,,
831,10796,Stop 36 Salisbury Hwy - South East side,"22 Kelleway St, Parafield Gardens",-34.7916382538404,138.615434962904,,http://www.adelaidemetro.com.au/stops/view/10796,,,,
100275,17377,Stop 33C Mawson Lakes Blvd - West side,"295 Mawson Lakes Blvd, Mawson Lakes",-34.81937,138.61132,,http://www.adelaidemetro.com.au/stops/view/17377,,,,
100277,17379,Stop 33D Mawson Lakes Blvd - South side,"270-272 Mawson Lakes Blvd, Mawson Lakes",-34.81782,138.6091,,http://www.adelaidemetro.com.au/stops/view/17379,,,,
7271,16649,Stop 33E Mawson Lakes Blvd - West side,"231B Mawson Lakes Blvd, Mawson Lakes",-34.8137757655168,138.607763086981,,http://www.adelaidemetro.com.au/stops/view/16649,,,,
100158,17264,Stop 33F Mawson Lakes Blvd - North side,"1 Parkview Dr, Mawson Lakes",-34.8109882020098,138.610574066749,,http://www.adelaidemetro.com.au/stops/view/17264,,,,
846,10811,Stop 35 Salisbury Hwy - South East side,"518-520 Salisbury Hwy, Parafield Gardens",-34.7933009790275,138.613951441609,,http://www.adelaidemetro.com.au/stops/view/10811,,,,
100436,17534,Stop 34L Main St - West side,"29 Main St, Mawson Lakes",-34.8078951818047,138.616846585494,,http://www.adelaidemetro.com.au/stops/view/17534,,,,
100762,17860,Stop 34P Elder Smith Rd - South side,"Elder Smith Rd, Mawson Lakes",-34.802221,138.609123,,http://www.adelaidemetro.com.au/stops/view/17860,,,,
100533,17631,Stop 34Q Salisbury Hwy - North West side,"561 Salisbury Hwy, Green Fields",-34.79929,138.6082,,http://www.adelaidemetro.com.au/stops/view/17631,,,,
100869,17961,Stop 34U Salisbury Hwy - West side,"569 Salisbury Hwy, Green Fields",-34.797589,138.609625,,http://www.adelaidemetro.com.au/stops/view/17961,,,,
876,10839,Stop 34R Salisbury Hwy - North West side,"541 Salisbury Hwy, Parafield Gardens",-34.79542,138.61172,,http://www.adelaidemetro.com.au/stops/view/10839,,,,
875,10838,Stop 34R Salisbury Hwy - South East side,"544 Salisbury Hwy, Parafield Gardens",-34.79556,138.61193,,http://www.adelaidemetro.com.au/stops/view/10838,,,,
832,10797,Stop 36 Salisbury Hwy - North West side,"483-485 Salisbury Hwy, Parafield Gardens",-34.7914268953926,138.615246967384,,http://www.adelaidemetro.com.au/stops/view/10797,,,,
801,10772,Stop 37 Salisbury Hwy - North West side,"445 Salisbury Hwy, Parafield Gardens",-34.7886442245883,138.617750924141,,http://www.adelaidemetro.com.au/stops/view/10772,,,,
761,10734,Stop 38 Salisbury Hwy - North West side,"383 Salisbury Hwy, Parafield Gardens",-34.78468,138.6213,,http://www.adelaidemetro.com.au/stops/view/10734,,,,
749,10722,Stop 39 Salisbury Hwy - West side,"367 Salisbury Hwy, Parafield Gardens",-34.78307,138.6228,,http://www.adelaidemetro.com.au/stops/view/10722,,,,
729,10702,Stop 40 Salisbury Hwy - West side,"339 Salisbury Hwy, Parafield Gardens",-34.7811559482537,138.624447194541,,http://www.adelaidemetro.com.au/stops/view/10702,,,,
694,10667,Stop 41 Salisbury Hwy - West side,"293 Salisbury Hwy, Salisbury Downs",-34.7781789881905,138.627106586473,,http://www.adelaidemetro.com.au/stops/view/10667,,,,
674,10647,Stop 42 Salisbury Hwy - West side,"263 Salisbury Hwy, Salisbury Downs",-34.7758631569938,138.629177206472,,http://www.adelaidemetro.com.au/stops/view/10647,,,,
661,10634,Stop 43 Salisbury Hwy - West side,"241 Salisbury Hwy, Salisbury Downs",-34.7744073443068,138.630477436312,,http://www.adelaidemetro.com.au/stops/view/10634,,,,
630,10609,Stop 44 Salisbury Hwy - West side,"207 Salisbury Hwy, Salisbury Downs",-34.7716062974832,138.632995971921,,http://www.adelaidemetro.com.au/stops/view/10609,,,,
615,10597,Stop 45 Salisbury Hwy - West side,"177 Salisbury Hwy, Salisbury",-34.7692635701729,138.635141132052,,http://www.adelaidemetro.com.au/stops/view/10597,,,,
100528,17626,Stop 34Q Salisbury Hwy - East side,"561 Salisbury Hwy, Green Fields",-34.799938,138.608227,,http://www.adelaidemetro.com.au/stops/view/17626,,,,
2567,12467,Stop 14 Main North Rd - East side,"181 Main North Rd, Nailsworth",-34.881842045022,138.602681963831,,http://www.adelaidemetro.com.au/stops/view/12467,,,,
1658,11584,Stop 26 Main North Rd - East side,"491-511 Main North Rd, Gepps Cross",-34.8454360745975,138.602403880982,,http://www.adelaidemetro.com.au/stops/view/11584,,,,
1763,11685,Stop 25 Main North Rd - East side,"479-481 Main North Rd, Enfield",-34.84947,138.6004,,http://www.adelaidemetro.com.au/stops/view/11685,,,,
359,10350,Stop 56 Philip Hwy - West side,"179 Philip Hwy, Elizabeth South",-34.742447491207,138.657261906341,,http://www.adelaidemetro.com.au/stops/view/10350,,,,
100345,17446,Stop 57 Philip Hwy - West side,"162 Philip Hwy, Elizabeth South",-34.7391766208331,138.658016074374,,http://www.adelaidemetro.com.au/stops/view/17446,,,,
295,10286,Stop 58 Philip Hwy - North West side,"138 Philip Hwy, Elizabeth South",-34.73576,138.660191,,http://www.adelaidemetro.com.au/stops/view/10286,,,,
283,10274,Stop 59 Philip Hwy - North West side,"104-110 Philip Hwy, Elizabeth South",-34.7325364857286,138.662086790654,,http://www.adelaidemetro.com.au/stops/view/10274,,,,
275,10266,Stop 60 Philip Hwy - North West side,"70 Philip Hwy, Elizabeth South",-34.7296196371151,138.664066984873,,http://www.adelaidemetro.com.au/stops/view/10266,,,,
269,10260,Stop 61 Philip Hwy - North West side,"46-48 Philip Hwy, Elizabeth",-34.72697,138.66574,,http://www.adelaidemetro.com.au/stops/view/10260,,,,
260,10251,Stop 62 Philip Hwy - North West side,"34-38 Philip Hwy, Elizabeth",-34.723921678835,138.667635369708,,http://www.adelaidemetro.com.au/stops/view/10251,,,,
252,10243,Stop 63 Philip Hwy - West side,"7 Philip Hwy, Elizabeth",-34.721078,138.669396,,http://www.adelaidemetro.com.au/stops/view/10243,,,,
1854,11771,Stop 24 Main North Rd - East side,"449 Main North Rd, Enfield",-34.8531129073176,138.600649338366,,http://www.adelaidemetro.com.au/stops/view/11771,,,,
1886,11803,Stop 23 Main North Rd - East side,"429 Main North Rd, Enfield",-34.8552895785417,138.600794824098,,http://www.adelaidemetro.com.au/stops/view/11803,,,,
7268,16647,Stop 33E Mawson Lakes Blvd - East side,"224-228 Mawson Lakes Blvd, Mawson Lakes",-34.8142083005645,138.607907988267,,http://www.adelaidemetro.com.au/stops/view/16647,,,,
2050,11967,Stop 21 Main North Rd - East side,"401 Main North Rd, Enfield",-34.86159,138.60126,,http://www.adelaidemetro.com.au/stops/view/11967,,,,
1227,11182,Stop 33A Mawson Lakes Blvd - North East side,"360-364 Mawson Lakes Blvd, Mawson Lakes",-34.82298,138.61294,,http://www.adelaidemetro.com.au/stops/view/11182,,,,
2262,12171,Stop 18 Main North Rd - East side,"285-287 Main North Rd, Enfield",-34.871434510715,138.60192213941,,http://www.adelaidemetro.com.au/stops/view/12171,,,,
2445,12349,Stop 16 Main North Rd - East side,"258 Main North Rd, Prospect",-34.876590917762,138.602300706972,,http://www.adelaidemetro.com.au/stops/view/12349,,,,
2508,12409,Stop 15 Main North Rd - East side,"203-205 Main North Rd, Sefton Park",-34.879420857861,138.602487341812,,http://www.adelaidemetro.com.au/stops/view/12409,,,,
2636,12536,Stop 13 Main North Rd - East side,"153-155 Main North Rd, Nailsworth",-34.8844902141908,138.602866467125,,http://www.adelaidemetro.com.au/stops/view/12536,,,,
2393,12297,Stop 17 Main North Rd - East side,"255 Main North Rd, Sefton Park",-34.8749768242108,138.602170038107,,http://www.adelaidemetro.com.au/stops/view/12297,,,,
2765,12665,Stop 11 Main North Rd - East side,"63-73 Main North Rd, Nailsworth",-34.8905642518845,138.603299960448,,http://www.adelaidemetro.com.au/stops/view/12665,,,,
2807,12707,Stop 10 Main North Rd - East side,"59 Main North Rd, Medindie Gardens",-34.8922087313184,138.603420444422,,http://www.adelaidemetro.com.au/stops/view/12707,,,,
3187,13078,Stop 2 King William Rd - East side,"60-80 King William Rd, North Adelaide",-34.9114781262482,138.599139112978,,http://www.adelaidemetro.com.au/stops/view/13078,,,,
3289,13179,Stop 1 King William Rd - East side,"12 King William Rd, North Adelaide",-34.9148901432565,138.59889639512,,http://www.adelaidemetro.com.au/stops/view/13179,,,,
3266,13156,Stop 1 King William Rd - West side,"12 King William Rd, North Adelaide",-34.9142300118528,138.598589325489,,http://www.adelaidemetro.com.au/stops/view/13156,,,,
2030,11947,Stop 21 Main North Rd - West side,"412 Main North Rd, Blair Athol",-34.861175378645,138.600975508189,,http://www.adelaidemetro.com.au/stops/view/11947,,,,
2102,12015,Stop 20 Main North Rd - West side,"376 Main North Rd, Blair Athol",-34.86419,138.6012,,http://www.adelaidemetro.com.au/stops/view/12015,,,,
1944,11861,Stop 22 Main North Rd - West side,"446-448 Main North Rd, Blair Athol",-34.85765,138.60072,,http://www.adelaidemetro.com.au/stops/view/11861,,,,
725,10698,Stop 40 Salisbury Hwy - East side,"47 New Hampshire Dr, Parafield Gardens",-34.7810815365033,138.624876118276,,http://www.adelaidemetro.com.au/stops/view/10698,,,,
1517,11460,Stop 29 Main North Rd - West side,"760-778 Main North Rd, Dry Creek",-34.836903,138.608204,,http://www.adelaidemetro.com.au/stops/view/11460,,,,
100841,17933,Stop 143 Murray St - West side,"28 Murray St, Gawler",-34.601663,138.74901,,http://www.adelaidemetro.com.au/stops/view/17933,,,,
1874,11791,Stop 23 Main North Rd - West side,"468 Main North Rd, Blair Athol",-34.8543371444229,138.600490062998,,http://www.adelaidemetro.com.au/stops/view/11791,,,,
101304,18395,Zone A Main St - West side,"9 Main St, Mawson Lakes",-34.809514,138.616863,,http://www.adelaidemetro.com.au/stops/view/18395,,,,
848,10813,Stop 35 Salisbury Hwy - North West side,"511 Salisbury Hwy, Parafield Gardens",-34.79319,138.61368,,http://www.adelaidemetro.com.au/stops/view/10813,,,,
244,10236,Stop 64A Yorktown Rd - North side,"1-5 Yorktown Rd, Elizabeth Park",-34.71902,138.67533,,http://www.adelaidemetro.com.au/stops/view/10236,,,,
690,10663,Stop 41 Salisbury Hwy - South East side,"316 Salisbury Hwy, Salisbury Downs",-34.7780080374725,138.627610490418,,http://www.adelaidemetro.com.au/stops/view/10663,,,,
1760,11682,Stop 25 Main North Rd - West side,"552-556 Main North Rd, Blair Athol",-34.84949,138.60012,,http://www.adelaidemetro.com.au/stops/view/11682,,,,
678,10651,Stop 42 Salisbury Hwy - East side,"288-290 Salisbury Hwy, Salisbury Downs",-34.7763583663098,138.629088501568,,http://www.adelaidemetro.com.au/stops/view/10651,,,,
655,10629,Stop 43 Salisbury Hwy - East side,"262 Salisbury Hwy, Salisbury Downs",-34.7742451540585,138.630980078933,,http://www.adelaidemetro.com.au/stops/view/10629,,,,
74,10067,Stop 81B Main North Rd - East side,"49 Main North Rd, Smithfield",-34.6828213023123,138.694096565891,,http://www.adelaidemetro.com.au/stops/view/10067,,,,
104,10096,Stop 78 Uley Rd - North East side,"LOT 102 Uley Rd, Blakeview",-34.6896652158516,138.693010954385,,http://www.adelaidemetro.com.au/stops/view/10096,,,,
111,10103,Stop 77 Hamblynn Rd - South East side,"98 Hamblynn Rd, Elizabeth Downs",-34.6913627528871,138.693925506724,,http://www.adelaidemetro.com.au/stops/view/10103,,,,
118,10110,Stop 76 Hamblynn Rd - South East side,"76 Hamblynn Rd, Elizabeth Downs",-34.6932630379495,138.692743773628,,http://www.adelaidemetro.com.au/stops/view/10110,,,,
126,10118,Stop 75 Hamblynn Rd - North East side,"56 Hamblynn Rd, Elizabeth Downs",-34.6953758877381,138.692257279893,,http://www.adelaidemetro.com.au/stops/view/10118,,,,
631,10610,Stop 44 Salisbury Hwy - South East side,"210-212 Salisbury Hwy, Salisbury Downs",-34.7719094667484,138.633060923094,,http://www.adelaidemetro.com.au/stops/view/10610,,,,
617,10599,Stop 45 Salisbury Hwy - East side,"178 Salisbury Hwy, Salisbury",-34.7694479069821,138.635273330749,,http://www.adelaidemetro.com.au/stops/view/10599,,,,
590,10573,Stop 46 Salisbury Hwy - North West side,"139 Salisbury Hwy, Salisbury",-34.7669061365979,138.637260934676,,http://www.adelaidemetro.com.au/stops/view/10573,,,,
586,10569,Stop 46 Salisbury Hwy - East side,"138-142 Salisbury Hwy, Salisbury",-34.766892775432,138.637567515296,,http://www.adelaidemetro.com.au/stops/view/10569,,,,
1954,11871,Stop 22 Main North Rd - East side,"442 Main North Rd, Blair Athol",-34.8578330969938,138.601010937087,,http://www.adelaidemetro.com.au/stops/view/11871,,,,
188,10180,Stop 70 Yorktown Rd - South side,"132 Yorktown Rd, Elizabeth Park",-34.7073477689825,138.687226223183,,http://www.adelaidemetro.com.au/stops/view/10180,,,,
195,10187,Stop 69 Yorktown Rd - South East side,"117 Yorktown Rd, Elizabeth Park",-34.7080173505181,138.685514031837,,http://www.adelaidemetro.com.au/stops/view/10187,,,,
199,10191,Stop 68 Yorktown Rd - East side,"103 Yorktown Rd, Elizabeth Park",-34.7100755982673,138.684091011714,,http://www.adelaidemetro.com.au/stops/view/10191,,,,
213,10205,Stop 67 Yorktown Rd - East side,"80-82 Yorktown Rd, Elizabeth Park",-34.71267,138.68258,,http://www.adelaidemetro.com.au/stops/view/10205,,,,
222,10214,Stop 66 Yorktown Rd - East side,"46 Yorktown Rd, Elizabeth Park",-34.7148013717875,138.681586537033,,http://www.adelaidemetro.com.au/stops/view/10214,,,,
243,10235,Stop 65 Yorktown Rd - South East side,"20 Yorktown Rd, Elizabeth East",-34.7182638825597,138.678658498331,,http://www.adelaidemetro.com.au/stops/view/10235,,,,
201,10193,Stop 68 Yorktown Rd - West side,"101 Yorktown Rd, Elizabeth Park",-34.71028,138.68358,,http://www.adelaidemetro.com.au/stops/view/10193,,,,
768,10740,Stop 38 Salisbury Hwy - South East side,"426 Salisbury Hwy, Parafield Gardens",-34.7856250077489,138.620829952635,,http://www.adelaidemetro.com.au/stops/view/10740,,,,
2136,12047,Stop 20 Main North Rd - East side,"345 Main North Rd, Enfield",-34.8656931242665,138.601543979754,,http://www.adelaidemetro.com.au/stops/view/12047,,,,
2690,12590,Stop 12 Main North Rd - East side,"119 Main North Rd, Nailsworth",-34.8874882715494,138.603080281172,,http://www.adelaidemetro.com.au/stops/view/12590,,,,
3055,12947,Stop 5 O'Connell St - East side,"128 O'Connell St, North Adelaide",-34.9049971158701,138.595644489407,,http://www.adelaidemetro.com.au/stops/view/12947,,,,
2699,12599,Stop 12 Main North Rd - West side,"128 Main North Rd, Prospect",-34.88764,138.60285,,http://www.adelaidemetro.com.au/stops/view/12599,,,,
2815,12714,Stop 10 Main North Rd - West side,"84 Main North Rd, Prospect",-34.8923996408004,138.603195753566,,http://www.adelaidemetro.com.au/stops/view/12714,,,,
2767,12667,Stop 11 Main North Rd - West side,"96 Main North Rd, Prospect",-34.8908293749121,138.603078084797,,http://www.adelaidemetro.com.au/stops/view/12667,,,,
2635,12535,Stop 13 Main North Rd - West side,"166 Main North Rd, Prospect",-34.884603727605,138.602653362447,,http://www.adelaidemetro.com.au/stops/view/12535,,,,
2504,12405,Stop 15 Main North Rd - West side,"224 Main North Rd, Prospect",-34.87929,138.60226,,http://www.adelaidemetro.com.au/stops/view/12405,,,,
2384,12288,Stop 17 Main North Rd - West side,"268C Main North Rd, Prospect",-34.874828,138.601911,,http://www.adelaidemetro.com.au/stops/view/12288,,,,
2230,12139,Stop 18 Main North Rd - West side,"316-320 Main North Rd, Blair Athol",-34.8697769385241,138.601553338156,,http://www.adelaidemetro.com.au/stops/view/12139,,,,
1831,11749,Stop 24 Main North Rd - West side,"496 Main North Rd, Blair Athol",-34.8519195418454,138.600318222462,,http://www.adelaidemetro.com.au/stops/view/11749,,,,
1205,11160,Stop 33B Mawson Lakes Blvd - West side,"303 Mawson Lakes Blvd, Mawson Lakes",-34.82152,138.6113,,http://www.adelaidemetro.com.au/stops/view/11160,,,,
241,10233,Stop 65 Yorktown Rd - North West side,"17-23 Yorktown Rd, Elizabeth Park",-34.718,138.67861,,http://www.adelaidemetro.com.au/stops/view/10233,,,,
221,10213,Stop 66 Yorktown Rd - West side,"LOT 193 Yorktown Rd, Elizabeth Park",-34.71471,138.68128,,http://www.adelaidemetro.com.au/stops/view/10213,,,,
206,10198,Stop 67 Yorktown Rd - West side,"85 Yorktown Rd, Elizabeth Park",-34.7119219999854,138.682565167112,,http://www.adelaidemetro.com.au/stops/view/10198,,,,
60,10057,Stop 81C Main North Rd - East side,"8 Whitehart Cl, Blakeview",-34.6802945164008,138.695675945018,,http://www.adelaidemetro.com.au/stops/view/10057,,,,
133,10125,Stop 74A Hamblynn Rd - South East side,"36 Hamblynn Rd, Elizabeth Downs",-34.6971782856385,138.692142113234,,http://www.adelaidemetro.com.au/stops/view/10125,,,,
143,10135,Stop 74 Hamblynn Rd - South East side,"34 Hamblynn Rd, Elizabeth Downs",-34.6990313157624,138.691366468273,,http://www.adelaidemetro.com.au/stops/view/10135,,,,
164,10156,Stop 73 Midway Rd - North East side,"246 Midway Rd, Elizabeth Downs",-34.7025205050494,138.690226852374,,http://www.adelaidemetro.com.au/stops/view/10156,,,,
171,10163,Stop 72 Midway Rd - East side,"222 Midway Rd, Elizabeth Downs",-34.7050026504112,138.691512236197,,http://www.adelaidemetro.com.au/stops/view/10163,,,,
186,10178,Stop 71 Yorktown Rd - South side,"154 Yorktown Rd, Elizabeth Park",-34.7073367550304,138.690295705006,,http://www.adelaidemetro.com.au/stops/view/10178,,,,
110,10102,Stop 77 Hamblynn Rd - North West side,"97 Hamblynn Rd, Elizabeth Downs",-34.6913580552173,138.693754131654,,http://www.adelaidemetro.com.au/stops/view/10102,,,,
102,10094,Stop 78 Uley Rd - South West side,"8 Cleland Ave, Blakeview",-34.6897,138.69261,,http://www.adelaidemetro.com.au/stops/view/10094,,,,
193,10185,Stop 69 Yorktown Rd - North West side,"117 Yorktown Rd, Elizabeth Park",-34.70782,138.68529,,http://www.adelaidemetro.com.au/stops/view/10185,,,,
184,10176,Stop 70 Yorktown Rd - North side,"134 Yorktown Rd, Elizabeth Park",-34.7070560560357,138.687196678365,,http://www.adelaidemetro.com.au/stops/view/10176,,,,
183,10175,Stop 71 Yorktown Rd - North side,"154 Yorktown Rd, Elizabeth Park",-34.70706095254,138.689991235894,,http://www.adelaidemetro.com.au/stops/view/10175,,,,
172,10164,Stop 72 Midway Rd - West side,"215 Midway Rd, Elizabeth Downs",-34.705001315956,138.6913294235,,http://www.adelaidemetro.com.au/stops/view/10164,,,,
163,10155,Stop 73 Midway Rd - South West side,"239 Midway Rd, Elizabeth Downs",-34.7025664298546,138.690026637119,,http://www.adelaidemetro.com.au/stops/view/10155,,,,
144,10136,Stop 74 Hamblynn Rd - North West side,"27 Hamblynn Rd, Elizabeth Downs",-34.69933,138.69098,,http://www.adelaidemetro.com.au/stops/view/10136,,,,
132,10124,Stop 74A Hamblynn Rd - South West side,"47 Hamblynn Rd, Elizabeth Downs",-34.6971493406141,138.691964753118,,http://www.adelaidemetro.com.au/stops/view/10124,,,,
124,10116,Stop 75 Hamblynn Rd - North West side,"59 Hamblynn Rd, Elizabeth Downs",-34.6952425019774,138.692041265886,,http://www.adelaidemetro.com.au/stops/view/10116,,,,
115,10107,Stop 76 Hamblynn Rd - North West side,"85 Hamblynn Rd, Elizabeth Downs",-34.6927035399476,138.692911562512,,http://www.adelaidemetro.com.au/stops/view/10107,,,,
100818,17911,Stop 50 Salisbury Hwy - North West side,"21 Salisbury Hwy, Salisbury",-34.7558654231406,138.646893401913,,http://www.adelaidemetro.com.au/stops/view/17911,,,,
100842,17934,Stop 53N John Rice Ave (Hail N Ride) - North side,"1 Salisbury Hwy, Salisbury",-34.753194,138.649971,,http://www.adelaidemetro.com.au/stops/view/17934,,,,
420,10409,Stop 53A John Rice Ave - North West side,"179-189 John Rice Ave, Elizabeth South",-34.75166,138.6558,,http://www.adelaidemetro.com.au/stops/view/10409,,,,
101126,18217,Stop 143 Murray St - East side,"29-31 Murray St, Gawler",-34.601961,138.749441,,http://www.adelaidemetro.com.au/stops/view/18217,,,,
101127,18218,Stop 144 Adelaide Rd - East side,"12 Adelaide Rd, Gawler South",-34.604569,138.746447,,http://www.adelaidemetro.com.au/stops/view/18218,,,,
101129,18220,Stop 145 Adelaide Rd - East side,"52 Adelaide Rd, Gawler South",-34.608,138.743503,,http://www.adelaidemetro.com.au/stops/view/18220,,,,
100396,17496,Stop 64A Yorktown Rd - South side,"2 Yorktown Rd, Elizabeth East",-34.7193678076923,138.675139060551,,http://www.adelaidemetro.com.au/stops/view/17496,,,,
100291,17393,Stop 81B Main North Rd - West side,"36 Main North Rd, Smithfield",-34.6824966102548,138.693830402472,,http://www.adelaidemetro.com.au/stops/view/17393,,,,
63,10059,Stop 81C Main North Rd - West side,"33 Main North Rd, Smithfield",-34.68073,138.69494,,http://www.adelaidemetro.com.au/stops/view/10059,,,,
101130,18221,Stop 145 Adelaide Rd - West side,"33 Adelaide Rd, Gawler South",-34.607676,138.743566,,http://www.adelaidemetro.com.au/stops/view/18221,,,,
101128,18219,Stop 144 Adelaide Rd - West side,"9 Adelaide Rd, Gawler South",-34.604356,138.746359,,http://www.adelaidemetro.com.au/stops/view/18219,,,,
101125,18216,Stop 142 Murray St - West side,"58-60 Murray St, Gawler",-34.599867,138.749154,,http://www.adelaidemetro.com.au/stops/view/18216,,,,
101192,18283,Stop 101 Cowan St - South side,"8 Cowan St, Gawler",-34.595995,138.748221,,http://www.adelaidemetro.com.au/stops/view/18283,,,,
